{"type":"FeatureCollection", "features": [
{"type":"Feature","geometry":{"type":"Point","coordinates":[-69.7155556,46.70055556]},"properties":{"STAID":"01010000","STANAME":"St. John River at Ninemile Bridge, Maine","ST":"me","HUC":"01010001","CLASS":0,"FLOW":0,"TIME":"","URL":"https://waterdata.usgs.gov/me/nwis/dv?site_no=01010000","DATUM":"NAD83","COUNT":68,"PERCENTILE":0}},
{"type":"Feature","geometry":{"type":"Point","coordinates":[-69.7516667,46.89388889]},"properties":{"STAID":"01010070","STANAME":"Big Black River near Depot Mtn, Maine","ST":"me","HUC":"01010001","CLASS":0,"FLOW":0,"TIME":"","URL":"https://waterdata.usgs.gov/me/nwis/dv?site_no=01010070","DATUM":"NAD83","COUNT":35,"PERCENTILE":0}},
{"type":"Feature","geometry":{"type":"Point","coordinates":[-69.0880556,47.11305556]},"properties":{"STAID":"01010500","STANAME":"St. John River at Dickey, Maine","ST":"me","HUC":"01010001","CLASS":0,"FLOW":0,"TIME":"","URL":"https://waterdata.usgs.gov/me/nwis/dv?site_no=01010500","DATUM":"NAD83","COUNT":73,"PERCENTILE":0}},
{"type":"Feature","geometry":{"type":"Point","coordinates":[-69.0794444,47.0697222]},"properties":{"STAID":"01011000","STANAME":"Allagash River near Allagash, Maine","ST":"me","HUC":"01010002","CLASS":0,"FLOW":0,"TIME":"","URL":"https://waterdata.usgs.gov/me/nwis/dv?site_no=01011000","DATUM":"NAD83","COUNT":88,"PERCENTILE":0}},
{"type":"Feature","geometry":{"type":"Point","coordinates":[-68.9564281,47.20697926]},"properties":{"STAID":"01011500","STANAME":"St. Francis River near Connors, New Brunswick","ST":"","HUC":"01010001","CLASS":5,"FLOW":759,"TIME":"2019-11-24","URL":"https://waterdata.usgs.gov/nwis/dv?site_no=01011500","DATUM":"NAD83","COUNT":60,"PERCENTILE":61.28}},
{"type":"Feature","geometry":{"type":"Point","coordinates":[-68.58277778,47.2375]},"properties":{"STAID":"01013500","STANAME":"Fish River near Fort Kent, Maine","ST":"me","HUC":"01010003","CLASS":0,"FLOW":0,"TIME":"","URL":"https://waterdata.usgs.gov/me/nwis/dv?site_no=01013500","DATUM":"NAD83","COUNT":89,"PERCENTILE":0}},
{"type":"Feature","geometry":{"type":"Point","coordinates":[-68.58527778,47.2833333]},"properties":{"STAID":"01014000","STANAME":"St. John River below Fish R, nr Fort Kent, Maine","ST":"me","HUC":"01010001","CLASS":0,"FLOW":0,"TIME":"","URL":"https://waterdata.usgs.gov/me/nwis/dv?site_no=01014000","DATUM":"NAD83","COUNT":92,"PERCENTILE":0}},
{"type":"Feature","geometry":{"type":"Point","coordinates":[-68.3716667,46.52305556]},"properties":{"STAID":"01015800","STANAME":"Aroostook River near Masardis, Maine","ST":"me","HUC":"01010004","CLASS":0,"FLOW":0,"TIME":"","URL":"https://waterdata.usgs.gov/me/nwis/dv?site_no=01015800","DATUM":"NAD83","COUNT":61,"PERCENTILE":0}},
{"type":"Feature","geometry":{"type":"Point","coordinates":[-68.1572222,46.7772222]},"properties":{"STAID":"01017000","STANAME":"Aroostook River at Washburn, Maine","ST":"me","HUC":"01010004","CLASS":0,"FLOW":0,"TIME":"","URL":"https://waterdata.usgs.gov/me/nwis/dv?site_no=01017000","DATUM":"NAD83","COUNT":88,"PERCENTILE":0}},
{"type":"Feature","geometry":{"type":"Point","coordinates":[-67.9891667,46.7836111]},"properties":{"STAID":"01017060","STANAME":"Hardwood Brook below Glidden Brk nr Caribou, Maine","ST":"me","HUC":"01010004","CLASS":0,"FLOW":0,"TIME":"","URL":"https://waterdata.usgs.gov/me/nwis/dv?site_no=01017060","DATUM":"NAD83","COUNT":9,"PERCENTILE":0}},
{"type":"Feature","geometry":{"type":"Point","coordinates":[-67.945,46.8886111]},"properties":{"STAID":"01017290","STANAME":"Little Madawaska River at Caribou, Maine","ST":"me","HUC":"01010004","CLASS":0,"FLOW":0,"TIME":"","URL":"https://waterdata.usgs.gov/me/nwis/dv?site_no=01017290","DATUM":"NAD83","COUNT":10,"PERCENTILE":0}},
{"type":"Feature","geometry":{"type":"Point","coordinates":[-67.9530556,46.62805556]},"properties":{"STAID":"01017550","STANAME":"Williams Brook at Phair, Maine","ST":"me","HUC":"01010005","CLASS":0,"FLOW":0,"TIME":"","URL":"https://waterdata.usgs.gov/me/nwis/dv?site_no=01017550","DATUM":"NAD83","COUNT":19,"PERCENTILE":0}},
{"type":"Feature","geometry":{"type":"Point","coordinates":[-67.88138889,46.105]},"properties":{"STAID":"01017960","STANAME":"Meduxnekeag R above S Br Medux. R nr Houlton, ME","ST":"me","HUC":"01010005","CLASS":0,"FLOW":0,"TIME":"","URL":"https://waterdata.usgs.gov/me/nwis/dv?site_no=01017960","DATUM":"NAD83","COUNT":15,"PERCENTILE":0}},
{"type":"Feature","geometry":{"type":"Point","coordinates":[-67.84027778,46.11527778]},"properties":{"STAID":"01018009","STANAME":"Pearce Brook at Route 1 at Houlton, Maine","ST":"me","HUC":"01010005","CLASS":0,"FLOW":0,"TIME":"","URL":"https://waterdata.usgs.gov/me/nwis/dv?site_no=01018009","DATUM":"NAD83","COUNT":10,"PERCENTILE":0}},
{"type":"Feature","geometry":{"type":"Point","coordinates":[-67.80388889,46.1811111]},"properties":{"STAID":"01018035","STANAME":"Meduxnekeag River at Lowery Rd. nr Houlton, Maine","ST":"me","HUC":"01010005","CLASS":0,"FLOW":0,"TIME":"","URL":"https://waterdata.usgs.gov/me/nwis/dv?site_no=01018035","DATUM":"NAD83","COUNT":13,"PERCENTILE":0}},
{"type":"Feature","geometry":{"type":"Point","coordinates":[-67.4283333,45.5683333]},"properties":{"STAID":"01018500","STANAME":"St. Croix River at Vanceboro, Maine","ST":"me","HUC":"01050001","CLASS":5,"FLOW":390.14,"TIME":"2019-11-24","URL":"https://waterdata.usgs.gov/me/nwis/dv?site_no=01018500","DATUM":"NAD83","COUNT":91,"PERCENTILE":56.54}},
{"type":"Feature","geometry":{"type":"Point","coordinates":[-67.76888889,45.1725]},"properties":{"STAID":"01019000","STANAME":"Grand Lake Stream at Grand Lake Stream, Maine","ST":"me","HUC":"01050001","CLASS":7,"FLOW":544.86,"TIME":"2019-11-24","URL":"https://waterdata.usgs.gov/me/nwis/dv?site_no=01019000","DATUM":"NAD83","COUNT":90,"PERCENTILE":95.77}},
{"type":"Feature","geometry":{"type":"Point","coordinates":[-67.3180556,45.1369444]},"properties":{"STAID":"01021000","STANAME":"St. Croix River at Baring, Maine","ST":"me","HUC":"01050001","CLASS":5,"FLOW":2708.57,"TIME":"2019-11-24","URL":"https://waterdata.usgs.gov/me/nwis/dv?site_no=01021000","DATUM":"NAD83","COUNT":60,"PERCENTILE":70.87}},
{"type":"Feature","geometry":{"type":"Point","coordinates":[-67.725,44.8008333]},"properties":{"STAID":"01021470","STANAME":"Libby Brook near Northfield, Maine","ST":"me","HUC":"01050002","CLASS":0,"FLOW":0,"TIME":"","URL":"https://waterdata.usgs.gov/me/nwis/dv?site_no=01021470","DATUM":"NAD83","COUNT":17,"PERCENTILE":0}},
{"type":"Feature","geometry":{"type":"Point","coordinates":[-67.7361111,44.9369444]},"properties":{"STAID":"01021480","STANAME":"Old Stream near Wesley, Maine","ST":"me","HUC":"01050002","CLASS":0,"FLOW":65.34,"TIME":"2019-11-24","URL":"https://waterdata.usgs.gov/me/nwis/dv?site_no=01021480","DATUM":"NAD83","COUNT":20,"PERCENTILE":49.39}},
{"type":"Feature","geometry":{"type":"Point","coordinates":[-67.93527778,44.60805556]},"properties":{"STAID":"01022500","STANAME":"Narraguagus River at Cherryfield, Maine","ST":"me","HUC":"01050002","CLASS":5,"FLOW":581.29,"TIME":"2019-11-24","URL":"https://waterdata.usgs.gov/me/nwis/dv?site_no=01022500","DATUM":"NAD83","COUNT":70,"PERCENTILE":56.48}},
{"type":"Feature","geometry":{"type":"Point","coordinates":[-68.2066667,44.33277778]},"properties":{"STAID":"01022840","STANAME":"Otter Creek near Bar Harbor, Maine","ST":"me","HUC":"01050002","CLASS":0,"FLOW":8.5,"TIME":"2019-11-24","URL":"https://waterdata.usgs.gov/me/nwis/dv?site_no=01022840","DATUM":"NAD83","COUNT":12,"PERCENTILE":81.76}},
{"type":"Feature","geometry":{"type":"Point","coordinates":[-69.9936111,45.93527778]},"properties":{"STAID":"01027200","STANAME":"North Branch Penobscot River nr Pittston Farm, ME","ST":"me","HUC":"01020001","CLASS":0,"FLOW":0,"TIME":"","URL":"https://waterdata.usgs.gov/me/nwis/dv?site_no=01027200","DATUM":"NAD83","COUNT":17,"PERCENTILE":0}},
{"type":"Feature","geometry":{"type":"Point","coordinates":[-69.9950083,45.8739222]},"properties":{"STAID":"01027240","STANAME":"S. Br. Penobscot River nr Canada Falls Lake, Maine","ST":"me","HUC":"01020001","CLASS":0,"FLOW":193,"TIME":"2019-11-24","URL":"https://waterdata.usgs.gov/me/nwis/dv?site_no=01027240","DATUM":"NAD83","COUNT":2,"PERCENTILE":33.33}},
{"type":"Feature","geometry":{"type":"Point","coordinates":[-68.6336111,46.14305556]},"properties":{"STAID":"01029200","STANAME":"Seboeis River near Shin Pond, Maine","ST":"me","HUC":"01020002","CLASS":0,"FLOW":0,"TIME":"","URL":"https://waterdata.usgs.gov/me/nwis/dv?site_no=01029200","DATUM":"NAD83","COUNT":20,"PERCENTILE":0}},
{"type":"Feature","geometry":{"type":"Point","coordinates":[-68.5894444,45.73027778]},"properties":{"STAID":"01029500","STANAME":"East Branch Penobscot River at Grindstone, Maine","ST":"me","HUC":"01020002","CLASS":0,"FLOW":0,"TIME":"","URL":"https://waterdata.usgs.gov/me/nwis/dv?site_no=01029500","DATUM":"NAD83","COUNT":97,"PERCENTILE":0}},
{"type":"Feature","geometry":{"type":"Point","coordinates":[-68.1580556,45.7086111]},"properties":{"STAID":"01030350","STANAME":"Wytopitlock Stream near Wytopitlock Maine","ST":"me","HUC":"01020003","CLASS":0,"FLOW":0,"TIME":"","URL":"https://waterdata.usgs.gov/me/nwis/dv?site_no=01030350","DATUM":"NAD83","COUNT":10,"PERCENTILE":0}},
{"type":"Feature","geometry":{"type":"Point","coordinates":[-68.3058333,45.5011111]},"properties":{"STAID":"01030500","STANAME":"Mattawamkeag River near Mattawamkeag, Maine","ST":"me","HUC":"01020003","CLASS":0,"FLOW":0,"TIME":"","URL":"https://waterdata.usgs.gov/me/nwis/dv?site_no=01030500","DATUM":"NAD83","COUNT":84,"PERCENTILE":0}},
{"type":"Feature","geometry":{"type":"Point","coordinates":[-69.58388889,45.2672222]},"properties":{"STAID":"01031300","STANAME":"Piscataquis River at Blanchard, Maine","ST":"me","HUC":"01020004","CLASS":0,"FLOW":0,"TIME":"","URL":"https://waterdata.usgs.gov/me/nwis/dv?site_no=01031300","DATUM":"NAD83","COUNT":22,"PERCENTILE":0}},
{"type":"Feature","geometry":{"type":"Point","coordinates":[-69.4522222,45.1844444]},"properties":{"STAID":"01031450","STANAME":"Kingsbury Stream at Abbot Village, Maine","ST":"me","HUC":"01020004","CLASS":0,"FLOW":0,"TIME":"","URL":"https://waterdata.usgs.gov/me/nwis/dv?site_no=01031450","DATUM":"NAD83","COUNT":21,"PERCENTILE":0}},
{"type":"Feature","geometry":{"type":"Point","coordinates":[-69.3147222,45.175]},"properties":{"STAID":"01031500","STANAME":"Piscataquis River near Dover-Foxcroft, Maine","ST":"me","HUC":"01020004","CLASS":0,"FLOW":0,"TIME":"","URL":"https://waterdata.usgs.gov/me/nwis/dv?site_no=01031500","DATUM":"NAD83","COUNT":116,"PERCENTILE":0}},
{"type":"Feature","geometry":{"type":"Point","coordinates":[-69.23638889,45.15027778]},"properties":{"STAID":"01031510","STANAME":"Black Stream near Dover-Foxcroft, Maine","ST":"me","HUC":"01020004","CLASS":0,"FLOW":0,"TIME":"","URL":"https://waterdata.usgs.gov/me/nwis/dv?site_no=01031510","DATUM":"NAD83","COUNT":10,"PERCENTILE":0}},
{"type":"Feature","geometry":{"type":"Point","coordinates":[-68.8686111,45.26055556]},"properties":{"STAID":"01034000","STANAME":"Piscataquis River at Medford, Maine","ST":"me","HUC":"01020004","CLASS":0,"FLOW":0,"TIME":"","URL":"https://waterdata.usgs.gov/me/nwis/dv?site_no=01034000","DATUM":"NAD83","COUNT":87,"PERCENTILE":0}},
{"type":"Feature","geometry":{"type":"Point","coordinates":[-68.65138889,45.2361111]},"properties":{"STAID":"01034500","STANAME":"Penobscot River at West Enfield, Maine","ST":"me","HUC":"01020005","CLASS":5,"FLOW":12110,"TIME":"2019-11-24","URL":"https://waterdata.usgs.gov/me/nwis/dv?site_no=01034500","DATUM":"NAD83","COUNT":116,"PERCENTILE":61.14}},
{"type":"Feature","geometry":{"type":"Point","coordinates":[-68.8316667,44.8611111]},"properties":{"STAID":"01037000","STANAME":"Kenduskeag Stream near Bangor, Maine","ST":"me","HUC":"01020005","CLASS":0,"FLOW":0,"TIME":"","URL":"https://waterdata.usgs.gov/me/nwis/dv?site_no=01037000","DATUM":"NAD83","COUNT":19,"PERCENTILE":0}},
{"type":"Feature","geometry":{"type":"Point","coordinates":[-69.0608333,44.32916667]},"properties":{"STAID":"01037380","STANAME":"Ducktrap River near Lincolnville, Maine","ST":"me","HUC":"01050002","CLASS":0,"FLOW":0,"TIME":"","URL":"https://waterdata.usgs.gov/me/nwis/dv?site_no=01037380","DATUM":"NAD83","COUNT":20,"PERCENTILE":0}},
{"type":"Feature","geometry":{"type":"Point","coordinates":[-69.59388889,44.22277778]},"properties":{"STAID":"01038000","STANAME":"Sheepscot River at North Whitefield, Maine","ST":"me","HUC":"01050003","CLASS":5,"FLOW":253.86,"TIME":"2019-11-24","URL":"https://waterdata.usgs.gov/me/nwis/dv?site_no=01038000","DATUM":"NAD83","COUNT":80,"PERCENTILE":57.12}},
{"type":"Feature","geometry":{"type":"Point","coordinates":[-69.9619444,45.3397222]},"properties":{"STAID":"01042500","STANAME":"Kennebec River at The Forks, Maine","ST":"me","HUC":"01030002","CLASS":5,"FLOW":2030,"TIME":"2019-11-24","URL":"https://waterdata.usgs.gov/me/nwis/dv?site_no=01042500","DATUM":"NAD83","COUNT":115,"PERCENTILE":68.78}},
{"type":"Feature","geometry":{"type":"Point","coordinates":[-70.20112778,45.22905]},"properties":{"STAID":"01043500","STANAME":"Dead River near Dead River, Maine","ST":"me","HUC":"01030002","CLASS":6,"FLOW":1133.29,"TIME":"2019-11-24","URL":"https://waterdata.usgs.gov/me/nwis/dv?site_no=01043500","DATUM":"NAD83","COUNT":47,"PERCENTILE":86.42}},
{"type":"Feature","geometry":{"type":"Point","coordinates":[-70.2416667,45.3136111]},"properties":{"STAID":"01044550","STANAME":"Spencer Stream near Grand Falls, Maine","ST":"me","HUC":"01030002","CLASS":0,"FLOW":0,"TIME":"","URL":"https://waterdata.usgs.gov/me/nwis/dv?site_no=01044550","DATUM":"NAD83","COUNT":19,"PERCENTILE":0}},
{"type":"Feature","geometry":{"type":"Point","coordinates":[-69.8805556,45.0644444]},"properties":{"STAID":"01046000","STANAME":"Austin Stream at Bingham, Maine","ST":"me","HUC":"01030003","CLASS":0,"FLOW":0,"TIME":"","URL":"https://waterdata.usgs.gov/me/nwis/dv?site_no=01046000","DATUM":"NAD83","COUNT":48,"PERCENTILE":0}},
{"type":"Feature","geometry":{"type":"Point","coordinates":[-69.8855556,45.0519444]},"properties":{"STAID":"01046500","STANAME":"Kennebec River at Bingham, Maine","ST":"me","HUC":"01030003","CLASS":5,"FLOW":3375.71,"TIME":"2019-11-24","URL":"https://waterdata.usgs.gov/me/nwis/dv?site_no=01046500","DATUM":"NAD83","COUNT":90,"PERCENTILE":68.62}},
{"type":"Feature","geometry":{"type":"Point","coordinates":[-69.955,44.86916667]},"properties":{"STAID":"01047000","STANAME":"Carrabassett River near North Anson, Maine","ST":"me","HUC":"01030003","CLASS":0,"FLOW":0,"TIME":"","URL":"https://waterdata.usgs.gov/me/nwis/dv?site_no=01047000","DATUM":"NAD83","COUNT":98,"PERCENTILE":0}},
{"type":"Feature","geometry":{"type":"Point","coordinates":[-69.8869444,44.77888889]},"properties":{"STAID":"01047150","STANAME":"Kennebec River near Madison, Maine","ST":"me","HUC":"01030003","CLASS":0,"FLOW":4367.14,"TIME":"2019-11-24","URL":"https://waterdata.usgs.gov/me/nwis/dv?site_no=01047150","DATUM":"NAD83","COUNT":9,"PERCENTILE":38.57}},
{"type":"Feature","geometry":{"type":"Point","coordinates":[-70.48527778,44.85777778]},"properties":{"STAID":"01047200","STANAME":"Sandy River near Madrid, Maine","ST":"me","HUC":"01030003","CLASS":0,"FLOW":0,"TIME":"","URL":"https://waterdata.usgs.gov/me/nwis/dv?site_no=01047200","DATUM":"NAD83","COUNT":10,"PERCENTILE":0}},
{"type":"Feature","geometry":{"type":"Point","coordinates":[-69.9375,44.70805556]},"properties":{"STAID":"01048000","STANAME":"Sandy River near Mercer, Maine","ST":"me","HUC":"01030003","CLASS":0,"FLOW":0,"TIME":"","URL":"https://waterdata.usgs.gov/me/nwis/dv?site_no=01048000","DATUM":"NAD83","COUNT":82,"PERCENTILE":0}},
{"type":"Feature","geometry":{"type":"Point","coordinates":[-69.6569444,44.9475]},"properties":{"STAID":"01048220","STANAME":"East Branch Wesserunsett Stream near Athens, Maine","ST":"me","HUC":"01030003","CLASS":0,"FLOW":0,"TIME":"","URL":"https://waterdata.usgs.gov/me/nwis/dv?site_no=01048220","DATUM":"NAD83","COUNT":10,"PERCENTILE":0}},
{"type":"Feature","geometry":{"type":"Point","coordinates":[-69.68388889,44.4722222]},"properties":{"STAID":"01049265","STANAME":"Kennebec River at North Sidney, Maine","ST":"me","HUC":"01030003","CLASS":5,"FLOW":7942.86,"TIME":"2019-11-24","URL":"https://waterdata.usgs.gov/me/nwis/dv?site_no=01049265","DATUM":"NAD83","COUNT":33,"PERCENTILE":46.77}},
{"type":"Feature","geometry":{"type":"Point","coordinates":[-69.7780556,44.22916667]},"properties":{"STAID":"01049500","STANAME":"Cobbosseecontee Stream at Gardiner, Maine","ST":"me","HUC":"01030003","CLASS":6,"FLOW":605,"TIME":"2019-11-24","URL":"https://waterdata.usgs.gov/me/nwis/dv?site_no=01049500","DATUM":"NAD83","COUNT":102,"PERCENTILE":85.27}},
{"type":"Feature","geometry":{"type":"Point","coordinates":[-71.0575,44.8775]},"properties":{"STAID":"01052500","STANAME":"Diamond River near Wentworth Location, NH","ST":"nh","HUC":"01040001","CLASS":5,"FLOW":229.14,"TIME":"2019-11-24","URL":"https://waterdata.usgs.gov/nh/nwis/dv?site_no=01052500","DATUM":"NAD83","COUNT":77,"PERCENTILE":45.1}},
{"type":"Feature","geometry":{"type":"Point","coordinates":[-71.1286111,44.7825]},"properties":{"STAID":"01053500","STANAME":"Androscoggin River at Errol, NH","ST":"nh","HUC":"01040001","CLASS":5,"FLOW":1270,"TIME":"2019-11-24","URL":"https://waterdata.usgs.gov/nh/nwis/dv?site_no=01053500","DATUM":"NAD83","COUNT":113,"PERCENTILE":29.13}},
{"type":"Feature","geometry":{"type":"Point","coordinates":[-71.18138889,44.6661111]},"properties":{"STAID":"01053600","STANAME":"Androscoggin River below Bog Brook at Cambridge NH","ST":"nh","HUC":"01040001","CLASS":0,"FLOW":1525.71,"TIME":"2019-11-24","URL":"https://waterdata.usgs.gov/nh/nwis/dv?site_no=01053600","DATUM":"NAD83","COUNT":11,"PERCENTILE":20.94}},
{"type":"Feature","geometry":{"type":"Point","coordinates":[-71.19027778,44.4358333]},"properties":{"STAID":"01054000","STANAME":"Androscoggin River near Gorham, NH","ST":"nh","HUC":"01040001","CLASS":5,"FLOW":1782.86,"TIME":"2019-11-24","URL":"https://waterdata.usgs.gov/nh/nwis/dv?site_no=01054000","DATUM":"NAD83","COUNT":100,"PERCENTILE":38.6}},
{"type":"Feature","geometry":{"type":"Point","coordinates":[-71.1706556,44.38131944]},"properties":{"STAID":"01054114","STANAME":"Peabody River at Gorham, New Hampshire","ST":"nh","HUC":"01040001","CLASS":0,"FLOW":0,"TIME":"","URL":"https://waterdata.usgs.gov/nh/nwis/dv?site_no=01054114","DATUM":"NAD83","COUNT":6,"PERCENTILE":0}},
{"type":"Feature","geometry":{"type":"Point","coordinates":[-70.9797222,44.39055556]},"properties":{"STAID":"01054200","STANAME":"Wild River at Gilead, Maine","ST":"me","HUC":"01040002","CLASS":0,"FLOW":0,"TIME":"","URL":"https://waterdata.usgs.gov/me/nwis/dv?site_no=01054200","DATUM":"NAD83","COUNT":54,"PERCENTILE":0}},
{"type":"Feature","geometry":{"type":"Point","coordinates":[-70.7330556,44.5933333]},"properties":{"STAID":"01054300","STANAME":"Ellis River at South Andover, Maine","ST":"me","HUC":"01040002","CLASS":0,"FLOW":0,"TIME":"","URL":"https://waterdata.usgs.gov/me/nwis/dv?site_no=01054300","DATUM":"NAD83","COUNT":37,"PERCENTILE":0}},
{"type":"Feature","geometry":{"type":"Point","coordinates":[-70.5441667,44.5519444]},"properties":{"STAID":"01054500","STANAME":"Androscoggin River at Rumford, Maine","ST":"me","HUC":"01040002","CLASS":5,"FLOW":2992.86,"TIME":"2019-11-24","URL":"https://waterdata.usgs.gov/me/nwis/dv?site_no=01054500","DATUM":"NAD83","COUNT":117,"PERCENTILE":52.95}},
{"type":"Feature","geometry":{"type":"Point","coordinates":[-70.58888889,44.64277778]},"properties":{"STAID":"01055000","STANAME":"Swift River near Roxbury, Maine","ST":"me","HUC":"01040002","CLASS":0,"FLOW":0,"TIME":"","URL":"https://waterdata.usgs.gov/me/nwis/dv?site_no=01055000","DATUM":"NAD83","COUNT":89,"PERCENTILE":0}},
{"type":"Feature","geometry":{"type":"Point","coordinates":[-70.2297222,44.26944444]},"properties":{"STAID":"01055500","STANAME":"Nezinscot River at Turner Center, Maine","ST":"me","HUC":"01040002","CLASS":0,"FLOW":0,"TIME":"","URL":"https://waterdata.usgs.gov/me/nwis/dv?site_no=01055500","DATUM":"NAD83","COUNT":72,"PERCENTILE":0}},
{"type":"Feature","geometry":{"type":"Point","coordinates":[-70.5397222,44.30388889]},"properties":{"STAID":"01057000","STANAME":"Little Androscoggin River near South Paris, Maine","ST":"me","HUC":"01040002","CLASS":5,"FLOW":124.5,"TIME":"2019-11-24","URL":"https://waterdata.usgs.gov/me/nwis/dv?site_no=01057000","DATUM":"NAD83","COUNT":98,"PERCENTILE":56.51}},
{"type":"Feature","geometry":{"type":"Point","coordinates":[-70.2080556,44.0722222]},"properties":{"STAID":"01059000","STANAME":"Androscoggin River near Auburn, Maine","ST":"me","HUC":"01040002","CLASS":5,"FLOW":4227.14,"TIME":"2019-11-24","URL":"https://waterdata.usgs.gov/me/nwis/dv?site_no=01059000","DATUM":"NAD83","COUNT":89,"PERCENTILE":42.59}},
{"type":"Feature","geometry":{"type":"Point","coordinates":[-70.1782694,43.79915]},"properties":{"STAID":"01060000","STANAME":"Royal River at Yarmouth, Maine","ST":"me","HUC":"01060001","CLASS":5,"FLOW":154.03,"TIME":"2019-11-24","URL":"https://waterdata.usgs.gov/me/nwis/dv?site_no=01060000","DATUM":"NAD83","COUNT":55,"PERCENTILE":38.61}},
{"type":"Feature","geometry":{"type":"Point","coordinates":[-70.6397222,43.85555556]},"properties":{"STAID":"01063310","STANAME":"Stony Brook at East Sebago, Maine","ST":"me","HUC":"01060001","CLASS":0,"FLOW":0.72,"TIME":"2019-11-24","URL":"https://waterdata.usgs.gov/me/nwis/dv?site_no=01063310","DATUM":"NAD83","COUNT":24,"PERCENTILE":13.91}},
{"type":"Feature","geometry":{"type":"Point","coordinates":[-70.3472222,43.68694444]},"properties":{"STAID":"01064118","STANAME":"Presumpscot River at Westbrook, Maine","ST":"me","HUC":"01060001","CLASS":0,"FLOW":1152.86,"TIME":"2019-11-24","URL":"https://waterdata.usgs.gov/me/nwis/dv?site_no=01064118","DATUM":"NAD83","COUNT":22,"PERCENTILE":70.45}},
{"type":"Feature","geometry":{"type":"Point","coordinates":[-71.0905556,43.9908333]},"properties":{"STAID":"01064500","STANAME":"Saco River near Conway, NH","ST":"nh","HUC":"01060002","CLASS":5,"FLOW":681.71,"TIME":"2019-11-24","URL":"https://waterdata.usgs.gov/nh/nwis/dv?site_no=01064500","DATUM":"NAD83","COUNT":96,"PERCENTILE":44.7}},
{"type":"Feature","geometry":{"type":"Point","coordinates":[-71.2878488,43.83007396]},"properties":{"STAID":"01064801","STANAME":"BEARCAMP RIVER AT SOUTH TAMWORTH, NH","ST":"nh","HUC":"01060002","CLASS":0,"FLOW":108.97,"TIME":"2019-11-24","URL":"https://waterdata.usgs.gov/nh/nwis/dv?site_no=01064801","DATUM":"NAD83","COUNT":25,"PERCENTILE":36.81}},
{"type":"Feature","geometry":{"type":"Point","coordinates":[-70.7816667,43.80805556]},"properties":{"STAID":"01066000","STANAME":"Saco River at Cornish, Maine","ST":"me","HUC":"01060002","CLASS":5,"FLOW":1924.29,"TIME":"2019-11-24","URL":"https://waterdata.usgs.gov/me/nwis/dv?site_no=01066000","DATUM":"NAD83","COUNT":103,"PERCENTILE":41.25}},
{"type":"Feature","geometry":{"type":"Point","coordinates":[-70.5533333,43.4322222]},"properties":{"STAID":"01067950","STANAME":"Kennebunk River near Kennebunk, Maine","ST":"me","HUC":"01060003","CLASS":0,"FLOW":0,"TIME":"","URL":"https://waterdata.usgs.gov/me/nwis/dv?site_no=01067950","DATUM":"NAD83","COUNT":10,"PERCENTILE":0}},
{"type":"Feature","geometry":{"type":"Point","coordinates":[-70.7380556,43.4183333]},"properties":{"STAID":"01068910","STANAME":"Mousam River at Route 4 near Sanford, Maine","ST":"me","HUC":"01060003","CLASS":0,"FLOW":42.79,"TIME":"2019-11-24","URL":"https://waterdata.usgs.gov/me/nwis/dv?site_no=01068910","DATUM":"NAD83","COUNT":10,"PERCENTILE":36.5}},
{"type":"Feature","geometry":{"type":"Point","coordinates":[-70.6583333,43.4183333]},"properties":{"STAID":"01069500","STANAME":"Mousam River near West Kennebunk, Maine","ST":"me","HUC":"01060003","CLASS":5,"FLOW":116.69,"TIME":"2019-11-24","URL":"https://waterdata.usgs.gov/me/nwis/dv?site_no=01069500","DATUM":"NAD83","COUNT":55,"PERCENTILE":44.11}},
{"type":"Feature","geometry":{"type":"Point","coordinates":[-70.5833333,43.37916667]},"properties":{"STAID":"01069700","STANAME":"Branch Brook near Kennebunk, Maine","ST":"me","HUC":"01060003","CLASS":0,"FLOW":15.01,"TIME":"2019-11-24","URL":"https://waterdata.usgs.gov/me/nwis/dv?site_no=01069700","DATUM":"NAD83","COUNT":9,"PERCENTILE":27.8}},
{"type":"Feature","geometry":{"type":"Point","coordinates":[-70.9736739,43.26841527]},"properties":{"STAID":"01072800","STANAME":"COCHECO RIVER NEAR ROCHESTER, NH.","ST":"nh","HUC":"01060003","CLASS":0,"FLOW":75.63,"TIME":"2019-11-24","URL":"https://waterdata.usgs.gov/nh/nwis/dv?site_no=01072800","DATUM":"NAD83","COUNT":24,"PERCENTILE":28.68}},
{"type":"Feature","geometry":{"type":"Point","coordinates":[-70.9564507,43.23480487]},"properties":{"STAID":"01072870","STANAME":"ISINGLASS R AT ROCHESTER NECK RD, NR DOVER, NH","ST":"nh","HUC":"01060003","CLASS":0,"FLOW":70.64,"TIME":"2019-11-24","URL":"https://waterdata.usgs.gov/nh/nwis/dv?site_no=01072870","DATUM":"NAD83","COUNT":16,"PERCENTILE":17.23}},
{"type":"Feature","geometry":{"type":"Point","coordinates":[-70.9650603,43.1486955]},"properties":{"STAID":"01073000","STANAME":"OYSTER RIVER NEAR DURHAM, NH","ST":"nh","HUC":"01060003","CLASS":5,"FLOW":13.37,"TIME":"2019-11-24","URL":"https://waterdata.usgs.gov/nh/nwis/dv?site_no=01073000","DATUM":"NAD83","COUNT":83,"PERCENTILE":50.63}},
{"type":"Feature","geometry":{"type":"Point","coordinates":[-71.2016667,43.04138889]},"properties":{"STAID":"01073319","STANAME":"LAMPREY RIVER AT LANGFORD ROAD, AT RAYMOND, NH","ST":"nh","HUC":"01060003","CLASS":0,"FLOW":33.3,"TIME":"2019-11-24","URL":"https://waterdata.usgs.gov/nh/nwis/dv?site_no=01073319","DATUM":"NAD83","COUNT":10,"PERCENTILE":23.99}},
{"type":"Feature","geometry":{"type":"Point","coordinates":[-70.952559,43.10258558]},"properties":{"STAID":"01073500","STANAME":"LAMPREY RIVER NEAR NEWMARKET, NH","ST":"nh","HUC":"01060003","CLASS":5,"FLOW":148.14,"TIME":"2019-11-24","URL":"https://waterdata.usgs.gov/nh/nwis/dv?site_no=01073500","DATUM":"NAD83","COUNT":84,"PERCENTILE":32.87}},
{"type":"Feature","geometry":{"type":"Point","coordinates":[-71.038392,42.9845316]},"properties":{"STAID":"01073587","STANAME":"EXETER RIVER AT HAIGH ROAD, NEAR BRENTWOOD, NH","ST":"nh","HUC":"01060003","CLASS":0,"FLOW":43.6,"TIME":"2019-11-24","URL":"https://waterdata.usgs.gov/nh/nwis/dv?site_no=01073587","DATUM":"NAD83","COUNT":23,"PERCENTILE":40.1}},
{"type":"Feature","geometry":{"type":"Point","coordinates":[-70.8475,43.0358333]},"properties":{"STAID":"01073785","STANAME":"WINNICUT RIVER AT GREENLAND, NR PORTSMOUTH, NH","ST":"nh","HUC":"01060003","CLASS":0,"FLOW":16.42,"TIME":"2019-11-24","URL":"https://waterdata.usgs.gov/nh/nwis/dv?site_no=01073785","DATUM":"NAD83","COUNT":15,"PERCENTILE":42.06}},
{"type":"Feature","geometry":{"type":"Point","coordinates":[-71.6598029,44.0475669]},"properties":{"STAID":"01074520","STANAME":"EAST BRANCH PEMIGEWASSET RIVER AT LINCOLN, NH","ST":"nh","HUC":"01070001","CLASS":0,"FLOW":198.29,"TIME":"2019-11-24","URL":"https://waterdata.usgs.gov/nh/nwis/dv?site_no=01074520","DATUM":"NAD83","COUNT":24,"PERCENTILE":32.94}},
{"type":"Feature","geometry":{"type":"Point","coordinates":[-71.6795244,43.9761792]},"properties":{"STAID":"01075000","STANAME":"PEMIGEWASSET RIVER AT WOODSTOCK, NH","ST":"nh","HUC":"01070001","CLASS":5,"FLOW":313.14,"TIME":"2019-11-24","URL":"https://waterdata.usgs.gov/nh/nwis/dv?site_no=01075000","DATUM":"NAD83","COUNT":55,"PERCENTILE":35.65}},
{"type":"Feature","geometry":{"type":"Point","coordinates":[-71.8453594,43.79562647]},"properties":{"STAID":"01076000","STANAME":"BAKER RIVER NEAR RUMNEY, NH","ST":"nh","HUC":"01070001","CLASS":5,"FLOW":166.8,"TIME":"2019-11-24","URL":"https://waterdata.usgs.gov/nh/nwis/dv?site_no=01076000","DATUM":"NAD83","COUNT":66,"PERCENTILE":40.14}},
{"type":"Feature","geometry":{"type":"Point","coordinates":[-71.6856337,43.7592388]},"properties":{"STAID":"01076500","STANAME":"PEMIGEWASSET RIVER AT PLYMOUTH, NH","ST":"nh","HUC":"01070001","CLASS":5,"FLOW":830.29,"TIME":"2019-11-24","URL":"https://waterdata.usgs.gov/nh/nwis/dv?site_no=01076500","DATUM":"NAD83","COUNT":114,"PERCENTILE":37}},
{"type":"Feature","geometry":{"type":"Point","coordinates":[-71.8333333,43.70388889]},"properties":{"STAID":"01077400","STANAME":"COCKERMOUTH RIVER BELOW HARDY BROOK, AT GROTON, NH","ST":"nh","HUC":"01070001","CLASS":0,"FLOW":32.8,"TIME":"2019-11-24","URL":"https://waterdata.usgs.gov/nh/nwis/dv?site_no=01077400","DATUM":"NAD83","COUNT":9,"PERCENTILE":48.13}},
{"type":"Feature","geometry":{"type":"Point","coordinates":[-71.747857,43.56646307]},"properties":{"STAID":"01078000","STANAME":"SMITH RIVER NEAR BRISTOL, NH","ST":"nh","HUC":"01070001","CLASS":5,"FLOW":100.07,"TIME":"2019-11-24","URL":"https://waterdata.usgs.gov/nh/nwis/dv?site_no=01078000","DATUM":"NAD83","COUNT":100,"PERCENTILE":48.47}},
{"type":"Feature","geometry":{"type":"Point","coordinates":[-71.5875752,43.44174376]},"properties":{"STAID":"01081000","STANAME":"WINNIPESAUKEE RIVER AT TILTON, NH","ST":"nh","HUC":"01070002","CLASS":5,"FLOW":333.14,"TIME":"2019-11-24","URL":"https://waterdata.usgs.gov/nh/nwis/dv?site_no=01081000","DATUM":"NAD83","COUNT":81,"PERCENTILE":30.05}},
{"type":"Feature","geometry":{"type":"Point","coordinates":[-71.6528543,43.42285456]},"properties":{"STAID":"01081500","STANAME":"MERRIMACK RIVER AT FRANKLIN JUNCTION, NH","ST":"nh","HUC":"01070002","CLASS":5,"FLOW":1671.43,"TIME":"2019-11-24","URL":"https://waterdata.usgs.gov/nh/nwis/dv?site_no=01081500","DATUM":"NAD83","COUNT":92,"PERCENTILE":36.07}},
{"type":"Feature","geometry":{"type":"Point","coordinates":[-71.95924609,42.8625837]},"properties":{"STAID":"01082000","STANAME":"CONTOOCOOK RIVER AT PETERBOROUGH, NH","ST":"nh","HUC":"01070003","CLASS":5,"FLOW":89.33,"TIME":"2019-11-24","URL":"https://waterdata.usgs.gov/nh/nwis/dv?site_no=01082000","DATUM":"NAD83","COUNT":49,"PERCENTILE":51.29}},
{"type":"Feature","geometry":{"type":"Point","coordinates":[-71.85730149,43.1520237]},"properties":{"STAID":"01085000","STANAME":"CONTOOCOOK RIVER NEAR HENNIKER, NH","ST":"nh","HUC":"01070003","CLASS":5,"FLOW":385.14,"TIME":"2019-11-24","URL":"https://waterdata.usgs.gov/nh/nwis/dv?site_no=01085000","DATUM":"NAD83","COUNT":40,"PERCENTILE":57.77}},
{"type":"Feature","geometry":{"type":"Point","coordinates":[-71.7472995,43.1928569]},"properties":{"STAID":"01085500","STANAME":"CONTOOCOOK R BL HOPKINTON DAM AT W HOPKINTON, NH","ST":"nh","HUC":"01070003","CLASS":5,"FLOW":455.29,"TIME":"2019-11-24","URL":"https://waterdata.usgs.gov/nh/nwis/dv?site_no=01085500","DATUM":"NAD83","COUNT":42,"PERCENTILE":39.06}},
{"type":"Feature","geometry":{"type":"Point","coordinates":[-71.7322996,43.25091159]},"properties":{"STAID":"01086000","STANAME":"WARNER RIVER AT DAVISVILLE, NH","ST":"nh","HUC":"01070003","CLASS":5,"FLOW":108.9,"TIME":"2019-11-24","URL":"https://waterdata.usgs.gov/nh/nwis/dv?site_no=01086000","DATUM":"NAD83","COUNT":56,"PERCENTILE":41.34}},
{"type":"Feature","geometry":{"type":"Point","coordinates":[-71.4803481,43.21369248]},"properties":{"STAID":"01089100","STANAME":"SOUCOOK RIVER, AT PEMBROKE ROAD, NEAR CONCORD, NH","ST":"nh","HUC":"01070002","CLASS":0,"FLOW":64.02,"TIME":"2019-11-24","URL":"https://waterdata.usgs.gov/nh/nwis/dv?site_no=01089100","DATUM":"NAD83","COUNT":29,"PERCENTILE":30.89}},
{"type":"Feature","geometry":{"type":"Point","coordinates":[-71.36951248,43.25674759]},"properties":{"STAID":"01089500","STANAME":"SUNCOOK RIVER AT NORTH CHICHESTER, NH","ST":"nh","HUC":"01070002","CLASS":5,"FLOW":122.29,"TIME":"2019-11-24","URL":"https://waterdata.usgs.gov/nh/nwis/dv?site_no=01089500","DATUM":"NAD83","COUNT":60,"PERCENTILE":42.58}},
{"type":"Feature","geometry":{"type":"Point","coordinates":[-71.4059011,43.15980438]},"properties":{"STAID":"01089925","STANAME":"SUNCOOK RIVER AT NH 28, NEAR SUNCOOK, NH","ST":"nh","HUC":"01070002","CLASS":0,"FLOW":204.57,"TIME":"2019-11-24","URL":"https://waterdata.usgs.gov/nh/nwis/dv?site_no=01089925","DATUM":"NAD83","COUNT":4,"PERCENTILE":26.79}},
{"type":"Feature","geometry":{"type":"Point","coordinates":[-71.64146129,43.01480519]},"properties":{"STAID":"01091000","STANAME":"SOUTH BRANCH PISCATAQUOG RIVER NEAR GOFFSTOWN, NH","ST":"nh","HUC":"01070002","CLASS":5,"FLOW":108.27,"TIME":"2019-11-24","URL":"https://waterdata.usgs.gov/nh/nwis/dv?site_no=01091000","DATUM":"NAD83","COUNT":47,"PERCENTILE":52.73}},
{"type":"Feature","geometry":{"type":"Point","coordinates":[-71.5506252,43.01675]},"properties":{"STAID":"01091500","STANAME":"PISCATAQUOG RIVER NEAR GOFFSTOWN, NH","ST":"nh","HUC":"01070002","CLASS":5,"FLOW":180.71,"TIME":"2019-11-24","URL":"https://waterdata.usgs.gov/nh/nwis/dv?site_no=01091500","DATUM":"NAD83","COUNT":39,"PERCENTILE":51.63}},
{"type":"Feature","geometry":{"type":"Point","coordinates":[-71.4634002,42.9481405]},"properties":{"STAID":"01092000","STANAME":"MERRIMACK R NR GOFFS FALLS, BELOW MANCHESTER, NH","ST":"nh","HUC":"01070002","CLASS":5,"FLOW":2967.14,"TIME":"2019-11-24","URL":"https://waterdata.usgs.gov/nh/nwis/dv?site_no=01092000","DATUM":"NAD83","COUNT":82,"PERCENTILE":30.92}},
{"type":"Feature","geometry":{"type":"Point","coordinates":[-71.7067399,42.8425858]},"properties":{"STAID":"01093852","STANAME":"SOUHEGAN RIVER (SITE WLR-1) NEAR MILFORD, NH","ST":"nh","HUC":"01070002","CLASS":0,"FLOW":98.5,"TIME":"2019-11-24","URL":"https://waterdata.usgs.gov/nh/nwis/dv?site_no=01093852","DATUM":"NAD83","COUNT":11,"PERCENTILE":38.12}},
{"type":"Feature","geometry":{"type":"Point","coordinates":[-71.5061785,42.8575865]},"properties":{"STAID":"01094000","STANAME":"SOUHEGAN RIVER AT MERRIMACK, NH","ST":"nh","HUC":"01070002","CLASS":5,"FLOW":118.13,"TIME":"2019-11-24","URL":"https://waterdata.usgs.gov/nh/nwis/dv?site_no=01094000","DATUM":"NAD83","COUNT":84,"PERCENTILE":34.17}},
{"type":"Feature","geometry":{"type":"Point","coordinates":[-71.7881285,42.57620079]},"properties":{"STAID":"01094400","STANAME":"NORTH NASHUA RIVER AT FITCHBURG, MA","ST":"ma","HUC":"01070004","CLASS":5,"FLOW":61.6,"TIME":"2019-11-24","URL":"https://waterdata.usgs.gov/ma/nwis/dv?site_no=01094400","DATUM":"NAD83","COUNT":47,"PERCENTILE":30.61}},
{"type":"Feature","geometry":{"type":"Point","coordinates":[-71.7219333,42.49506389]},"properties":{"STAID":"01094500","STANAME":"NORTH NASHUA RIVER NEAR LEOMINSTER, MA","ST":"ma","HUC":"01070004","CLASS":5,"FLOW":117.86,"TIME":"2019-11-24","URL":"https://waterdata.usgs.gov/ma/nwis/dv?site_no=01094500","DATUM":"NAD83","COUNT":84,"PERCENTILE":43.29}},
{"type":"Feature","geometry":{"type":"Point","coordinates":[-71.7911829,42.41092507]},"properties":{"STAID":"01095220","STANAME":"STILLWATER RIVER NEAR STERLING, MA","ST":"ma","HUC":"01070004","CLASS":0,"FLOW":21.46,"TIME":"2019-11-24","URL":"https://waterdata.usgs.gov/ma/nwis/dv?site_no=01095220","DATUM":"NAD83","COUNT":25,"PERCENTILE":40.37}},
{"type":"Feature","geometry":{"type":"Point","coordinates":[-71.8281279,42.37286967]},"properties":{"STAID":"01095375","STANAME":"QUINAPOXET RIVER AT CANADA MILLS NEAR HOLDEN, MA","ST":"ma","HUC":"01070004","CLASS":0,"FLOW":14.58,"TIME":"2019-11-24","URL":"https://waterdata.usgs.gov/ma/nwis/dv?site_no=01095375","DATUM":"NAD83","COUNT":23,"PERCENTILE":36.29}},
{"type":"Feature","geometry":{"type":"Point","coordinates":[-71.775349,42.36453675]},"properties":{"STAID":"01095434","STANAME":"GATES BROOK NEAR WEST BOYLSTON, MA","ST":"ma","HUC":"01070004","CLASS":0,"FLOW":3.31,"TIME":"2019-11-24","URL":"https://waterdata.usgs.gov/ma/nwis/dv?site_no=01095434","DATUM":"NAD83","COUNT":8,"PERCENTILE":55.87}},
{"type":"Feature","geometry":{"type":"Point","coordinates":[-71.6661111,42.41944444]},"properties":{"STAID":"01095503","STANAME":"NASHUA RIVER, WATER STREET BRIDGE, AT CLINTON, MA","ST":"ma","HUC":"01070004","CLASS":0,"FLOW":7.55,"TIME":"2019-11-24","URL":"https://waterdata.usgs.gov/ma/nwis/dv?site_no=01095503","DATUM":"NAD83","COUNT":8,"PERCENTILE":41.36}},
{"type":"Feature","geometry":{"type":"Point","coordinates":[-71.6578479,42.63425619]},"properties":{"STAID":"01096000","STANAME":"SQUANNACOOK RIVER NEAR WEST GROTON, MA","ST":"ma","HUC":"01070004","CLASS":5,"FLOW":42.17,"TIME":"2019-11-24","URL":"https://waterdata.usgs.gov/ma/nwis/dv?site_no=01096000","DATUM":"NAD83","COUNT":70,"PERCENTILE":32.12}},
{"type":"Feature","geometry":{"type":"Point","coordinates":[-71.57506809,42.66758945]},"properties":{"STAID":"01096500","STANAME":"NASHUA RIVER AT EAST PEPPERELL, MA","ST":"ma","HUC":"01070004","CLASS":5,"FLOW":302.29,"TIME":"2019-11-24","URL":"https://waterdata.usgs.gov/ma/nwis/dv?site_no=01096500","DATUM":"NAD83","COUNT":84,"PERCENTILE":35.77}},
{"type":"Feature","geometry":{"type":"Point","coordinates":[-71.4497848,42.432038]},"properties":{"STAID":"01097000","STANAME":"ASSABET RIVER AT MAYNARD, MA","ST":"ma","HUC":"01070005","CLASS":5,"FLOW":113.97,"TIME":"2019-11-24","URL":"https://waterdata.usgs.gov/ma/nwis/dv?site_no=01097000","DATUM":"NAD83","COUNT":78,"PERCENTILE":45.15}},
{"type":"Feature","geometry":{"type":"Point","coordinates":[-71.40422829,42.51259289]},"properties":{"STAID":"01097300","STANAME":"NASHOBA BROOK NEAR ACTON, MA","ST":"ma","HUC":"01070005","CLASS":5,"FLOW":9.54,"TIME":"2019-11-24","URL":"https://waterdata.usgs.gov/ma/nwis/dv?site_no=01097300","DATUM":"NAD83","COUNT":56,"PERCENTILE":37.2}},
{"type":"Feature","geometry":{"type":"Point","coordinates":[-71.3838083,42.31514167]},"properties":{"STAID":"01098500","STANAME":"COCHITUATE BK BL LAKE COCHITUATE AT FRAMINGHAM, MA","ST":"ma","HUC":"01070005","CLASS":0,"FLOW":15.31,"TIME":"2019-11-24","URL":"https://waterdata.usgs.gov/ma/nwis/dv?site_no=01098500","DATUM":"NAD83","COUNT":11,"PERCENTILE":36.12}},
{"type":"Feature","geometry":{"type":"Point","coordinates":[-71.3975605,42.3253732]},"properties":{"STAID":"01098530","STANAME":"SUDBURY RIVER AT SAXONVILLE, MA","ST":"ma","HUC":"01070005","CLASS":5,"FLOW":171.17,"TIME":"2019-11-24","URL":"https://waterdata.usgs.gov/ma/nwis/dv?site_no=01098530","DATUM":"NAD83","COUNT":39,"PERCENTILE":57.54}},
{"type":"Feature","geometry":{"type":"Point","coordinates":[-71.3020047,42.6367581]},"properties":{"STAID":"01099500","STANAME":"CONCORD R BELOW R MEADOW BROOK, AT LOWELL, MA","ST":"ma","HUC":"01070002","CLASS":5,"FLOW":413.57,"TIME":"2019-11-24","URL":"https://waterdata.usgs.gov/ma/nwis/dv?site_no=01099500","DATUM":"NAD83","COUNT":82,"PERCENTILE":42.93}},
{"type":"Feature","geometry":{"type":"Point","coordinates":[-71.2983937,42.64592464]},"properties":{"STAID":"01100000","STANAME":"MERRIMACK RIVER BL CONCORD RIVER AT LOWELL, MA","ST":"ma","HUC":"01070002","CLASS":5,"FLOW":4391.43,"TIME":"2019-11-24","URL":"https://waterdata.usgs.gov/ma/nwis/dv?site_no=01100000","DATUM":"NAD83","COUNT":96,"PERCENTILE":36.79}},
{"type":"Feature","geometry":{"type":"Point","coordinates":[-71.2150607,42.8492547]},"properties":{"STAID":"01100505","STANAME":"SPICKET RIVER AT NORTH SALEM, NH","ST":"nh","HUC":"01070002","CLASS":0,"FLOW":13.94,"TIME":"2019-11-24","URL":"https://waterdata.usgs.gov/nh/nwis/dv?site_no=01100505","DATUM":"NAD83","COUNT":19,"PERCENTILE":43.26}},
{"type":"Feature","geometry":{"type":"Point","coordinates":[-71.208393,42.7431456]},"properties":{"STAID":"01100561","STANAME":"SPICKET RIVER NEAR METHUEN, MA","ST":"nh","HUC":"01070002","CLASS":0,"FLOW":33.26,"TIME":"2019-11-24","URL":"https://waterdata.usgs.gov/nh/nwis/dv?site_no=01100561","DATUM":"NAD83","COUNT":12,"PERCENTILE":30.24}},
{"type":"Feature","geometry":{"type":"Point","coordinates":[-71.2722795,42.46703909]},"properties":{"STAID":"01100568","STANAME":"SHAWSHEEN RIVER AT HANSCOM FIELD NEAR BEDFORD, MA","ST":"ma","HUC":"01070002","CLASS":0,"FLOW":8.14,"TIME":"2019-11-24","URL":"https://waterdata.usgs.gov/ma/nwis/dv?site_no=01100568","DATUM":"NAD83","COUNT":22,"PERCENTILE":86.89}},
{"type":"Feature","geometry":{"type":"Point","coordinates":[-71.2147792,42.5681488]},"properties":{"STAID":"01100600","STANAME":"SHAWSHEEN RIVER NEAR WILMINGTON, MA","ST":"ma","HUC":"01070002","CLASS":5,"FLOW":30.36,"TIME":"2019-11-24","URL":"https://waterdata.usgs.gov/ma/nwis/dv?site_no=01100600","DATUM":"NAD83","COUNT":55,"PERCENTILE":34.63}},
{"type":"Feature","geometry":{"type":"Point","coordinates":[-71.1492239,42.6714806]},"properties":{"STAID":"01100627","STANAME":"SHAWSHEEN RIVER AT BALMORAL STREET AT ANDOVER, MA","ST":"ma","HUC":"01070002","CLASS":0,"FLOW":53.21,"TIME":"2019-11-24","URL":"https://waterdata.usgs.gov/ma/nwis/dv?site_no=01100627","DATUM":"NAD83","COUNT":12,"PERCENTILE":15.74}},
{"type":"Feature","geometry":{"type":"Point","coordinates":[-70.9456096,42.75286948]},"properties":{"STAID":"01101000","STANAME":"PARKER RIVER AT BYFIELD, MA","ST":"ma","HUC":"01090001","CLASS":5,"FLOW":24.84,"TIME":"2019-11-24","URL":"https://waterdata.usgs.gov/ma/nwis/dv?site_no=01101000","DATUM":"NAD83","COUNT":73,"PERCENTILE":53.26}},
{"type":"Feature","geometry":{"type":"Point","coordinates":[-71.0269974,42.56953869]},"properties":{"STAID":"01101500","STANAME":"IPSWICH RIVER AT SOUTH MIDDLETON, MA","ST":"ma","HUC":"01090001","CLASS":5,"FLOW":35.4,"TIME":"2019-11-24","URL":"https://waterdata.usgs.gov/ma/nwis/dv?site_no=01101500","DATUM":"NAD83","COUNT":81,"PERCENTILE":38.27}},
{"type":"Feature","geometry":{"type":"Point","coordinates":[-70.8936622,42.6598157]},"properties":{"STAID":"01102000","STANAME":"IPSWICH RIVER NEAR IPSWICH, MA","ST":"ma","HUC":"01090001","CLASS":5,"FLOW":99.4,"TIME":"2019-11-24","URL":"https://waterdata.usgs.gov/ma/nwis/dv?site_no=01102000","DATUM":"NAD83","COUNT":88,"PERCENTILE":46}},
{"type":"Feature","geometry":{"type":"Point","coordinates":[-71.0069954,42.4695404]},"properties":{"STAID":"01102345","STANAME":"SAUGUS RIVER AT SAUGUS IRONWORKS AT SAUGUS, MA","ST":"ma","HUC":"01090001","CLASS":0,"FLOW":16.89,"TIME":"2019-11-24","URL":"https://waterdata.usgs.gov/ma/nwis/dv?site_no=01102345","DATUM":"NAD83","COUNT":25,"PERCENTILE":43.04}},
{"type":"Feature","geometry":{"type":"Point","coordinates":[-71.1380816,42.4474568]},"properties":{"STAID":"01102500","STANAME":"ABERJONA RIVER AT WINCHESTER, MA","ST":"ma","HUC":"01090001","CLASS":7,"FLOW":67.83,"TIME":"2019-11-24","URL":"https://waterdata.usgs.gov/ma/nwis/dv?site_no=01102500","DATUM":"NAD83","COUNT":80,"PERCENTILE":95.03}},
{"type":"Feature","geometry":{"type":"Point","coordinates":[-71.1426944,42.42066667]},"properties":{"STAID":"01103010","STANAME":"MYSTIC RIVER AT ARLINGTON, MA","ST":"ma","HUC":"01090001","CLASS":0,"FLOW":0,"TIME":"","URL":"https://waterdata.usgs.gov/ma/nwis/dv?site_no=01103010","DATUM":"NAD83","COUNT":0,"PERCENTILE":0}},
{"type":"Feature","geometry":{"type":"Point","coordinates":[-71.1339422,42.40704077]},"properties":{"STAID":"01103025","STANAME":"ALEWIFE BROOK NEAR ARLINGTON, MA","ST":"ma","HUC":"01090001","CLASS":0,"FLOW":8.61,"TIME":"2019-11-24","URL":"https://waterdata.usgs.gov/ma/nwis/dv?site_no=01103025","DATUM":"NAD83","COUNT":11,"PERCENTILE":54.5}},
{"type":"Feature","geometry":{"type":"Point","coordinates":[-71.3895032,42.1398197]},"properties":{"STAID":"01103280","STANAME":"CHARLES RIVER AT MEDWAY, MA","ST":"ma","HUC":"01090001","CLASS":0,"FLOW":58.6,"TIME":"2019-11-24","URL":"https://waterdata.usgs.gov/ma/nwis/dv?site_no=01103280","DATUM":"NAD83","COUNT":22,"PERCENTILE":44.64}},
{"type":"Feature","geometry":{"type":"Point","coordinates":[-71.29339017,42.25398645]},"properties":{"STAID":"01103455","STANAME":"TROUT BROOK AT DOVER, MA","ST":"ma","HUC":"01090001","CLASS":0,"FLOW":3.85,"TIME":"2019-11-24","URL":"https://waterdata.usgs.gov/ma/nwis/dv?site_no=01103455","DATUM":"NAD83","COUNT":7,"PERCENTILE":66.75}},
{"type":"Feature","geometry":{"type":"Point","coordinates":[-71.2600558,42.256209]},"properties":{"STAID":"01103500","STANAME":"CHARLES RIVER AT DOVER, MA","ST":"ma","HUC":"01090001","CLASS":5,"FLOW":175.67,"TIME":"2019-11-24","URL":"https://waterdata.usgs.gov/ma/nwis/dv?site_no=01103500","DATUM":"NAD83","COUNT":82,"PERCENTILE":39.67}},
{"type":"Feature","geometry":{"type":"Point","coordinates":[-71.1642196,42.2550985]},"properties":{"STAID":"01104000","STANAME":"MOTHER BROOK AT DEDHAM, MA","ST":"ma","HUC":"01090001","CLASS":5,"FLOW":66.77,"TIME":"2019-11-24","URL":"https://waterdata.usgs.gov/ma/nwis/dv?site_no=01104000","DATUM":"NAD83","COUNT":87,"PERCENTILE":66.46}},
{"type":"Feature","geometry":{"type":"Point","coordinates":[-71.227833,42.3164861]},"properties":{"STAID":"01104200","STANAME":"CHARLES RIVER AT WELLESLEY, MA","ST":"ma","HUC":"01090001","CLASS":4,"FLOW":125.84,"TIME":"2019-11-24","URL":"https://waterdata.usgs.gov/ma/nwis/dv?site_no=01104200","DATUM":"NAD83","COUNT":60,"PERCENTILE":21.39}},
{"type":"Feature","geometry":{"type":"Point","coordinates":[-71.2894444,42.38555556]},"properties":{"STAID":"01104370","STANAME":"STONY BROOK AT VILES STREET, NEAR WESTON, MA","ST":"ma","HUC":"01090001","CLASS":0,"FLOW":10.09,"TIME":"2019-11-24","URL":"https://waterdata.usgs.gov/ma/nwis/dv?site_no=01104370","DATUM":"NAD83","COUNT":9,"PERCENTILE":62.2}},
{"type":"Feature","geometry":{"type":"Point","coordinates":[-71.2600567,42.43592855]},"properties":{"STAID":"01104415","STANAME":"CAMBRIDGE RES., UNNAMED TRIB 2, NR LEXINGTON, MA","ST":"ma","HUC":"01090001","CLASS":0,"FLOW":0.45,"TIME":"2019-11-24","URL":"https://waterdata.usgs.gov/ma/nwis/dv?site_no=01104415","DATUM":"NAD83","COUNT":17,"PERCENTILE":62.86}},
{"type":"Feature","geometry":{"type":"Point","coordinates":[-71.2575565,42.4198177]},"properties":{"STAID":"01104420","STANAME":"CAMBRIDGE RES., UNNAMED TRIB 3, NR LEXINGTON, MA","ST":"ma","HUC":"01090001","CLASS":0,"FLOW":2.65,"TIME":"2019-11-24","URL":"https://waterdata.usgs.gov/ma/nwis/dv?site_no=01104420","DATUM":"NAD83","COUNT":7,"PERCENTILE":79.01}},
{"type":"Feature","geometry":{"type":"Point","coordinates":[-71.2733903,42.3981512]},"properties":{"STAID":"01104430","STANAME":"HOBBS BK BELOW CAMBRIDGE RES NR KENDALL GREEN, MA","ST":"ma","HUC":"01090001","CLASS":0,"FLOW":7.88,"TIME":"2019-11-24","URL":"https://waterdata.usgs.gov/ma/nwis/dv?site_no=01104430","DATUM":"NAD83","COUNT":22,"PERCENTILE":63.41}},
{"type":"Feature","geometry":{"type":"Point","coordinates":[-71.27033448,42.37259606]},"properties":{"STAID":"01104455","STANAME":"STONY BROOK, UNNAMED TRIBUTARY 1, NEAR WALTHAM, MA","ST":"ma","HUC":"01090001","CLASS":0,"FLOW":0.74,"TIME":"2019-11-24","URL":"https://waterdata.usgs.gov/ma/nwis/dv?site_no=01104455","DATUM":"NAD83","COUNT":20,"PERCENTILE":68.75}},
{"type":"Feature","geometry":{"type":"Point","coordinates":[-71.2706123,42.368985]},"properties":{"STAID":"01104460","STANAME":"STONY BROOK AT RT 20 AT WALTHAM, MA","ST":"ma","HUC":"01090001","CLASS":0,"FLOW":19.54,"TIME":"2019-11-24","URL":"https://waterdata.usgs.gov/ma/nwis/dv?site_no=01104460","DATUM":"NAD83","COUNT":19,"PERCENTILE":40.99}},
{"type":"Feature","geometry":{"type":"Point","coordinates":[-71.2681121,42.3545408]},"properties":{"STAID":"01104475","STANAME":"STONY BROOK RES., UNNAMED TRIB 1, NEAR WESTON, MA","ST":"ma","HUC":"01090001","CLASS":0,"FLOW":0.8,"TIME":"2019-11-24","URL":"https://waterdata.usgs.gov/ma/nwis/dv?site_no=01104475","DATUM":"NAD83","COUNT":15,"PERCENTILE":56.25}},
{"type":"Feature","geometry":{"type":"Point","coordinates":[-71.2650565,42.3556519]},"properties":{"STAID":"01104480","STANAME":"STONY BROOK RESERVOIR AT DAM NEAR WALTHAM, MA","ST":"ma","HUC":"01090001","CLASS":0,"FLOW":2.89,"TIME":"2019-11-24","URL":"https://waterdata.usgs.gov/ma/nwis/dv?site_no=01104480","DATUM":"NAD83","COUNT":20,"PERCENTILE":42.04}},
{"type":"Feature","geometry":{"type":"Point","coordinates":[-71.2336668,42.37231857]},"properties":{"STAID":"01104500","STANAME":"CHARLES RIVER AT WALTHAM, MA","ST":"ma","HUC":"01090001","CLASS":5,"FLOW":168.43,"TIME":"2019-11-24","URL":"https://waterdata.usgs.gov/ma/nwis/dv?site_no=01104500","DATUM":"NAD83","COUNT":88,"PERCENTILE":37.26}},
{"type":"Feature","geometry":{"type":"Point","coordinates":[-71.2008863,42.1775987]},"properties":{"STAID":"01105000","STANAME":"NEPONSET RIVER AT NORWOOD, MA","ST":"ma","HUC":"01090001","CLASS":5,"FLOW":46.64,"TIME":"2019-11-24","URL":"https://waterdata.usgs.gov/ma/nwis/dv?site_no=01105000","DATUM":"NAD83","COUNT":80,"PERCENTILE":58.09}},
{"type":"Feature","geometry":{"type":"Point","coordinates":[-71.1458842,42.15454356]},"properties":{"STAID":"01105500","STANAME":"EAST BRANCH NEPONSET RIVER AT CANTON, MA","ST":"ma","HUC":"01090001","CLASS":5,"FLOW":30.81,"TIME":"2019-11-24","URL":"https://waterdata.usgs.gov/ma/nwis/dv?site_no=01105500","DATUM":"NAD83","COUNT":67,"PERCENTILE":32.72}},
{"type":"Feature","geometry":{"type":"Point","coordinates":[-71.1458851,42.2092655]},"properties":{"STAID":"01105554","STANAME":"NEPONSET RIVER AT GREENLODGE ST NEAR CANTON, MA","ST":"ma","HUC":"01090001","CLASS":0,"FLOW":109.19,"TIME":"2019-11-24","URL":"https://waterdata.usgs.gov/ma/nwis/dv?site_no=01105554","DATUM":"NAD83","COUNT":14,"PERCENTILE":27.87}},
{"type":"Feature","geometry":{"type":"Point","coordinates":[-70.9781026,42.22093308]},"properties":{"STAID":"01105583","STANAME":"MONATIQUOT RIVER AT EAST BRAINTREE, MA","ST":"ma","HUC":"01090001","CLASS":0,"FLOW":21.69,"TIME":"2019-11-24","URL":"https://waterdata.usgs.gov/ma/nwis/dv?site_no=01105583","DATUM":"NAD83","COUNT":13,"PERCENTILE":41.98}},
{"type":"Feature","geometry":{"type":"Point","coordinates":[-70.9972703,42.24787726]},"properties":{"STAID":"01105585","STANAME":"TOWN BROOK AT QUINCY, MA","ST":"ma","HUC":"01090001","CLASS":6,"FLOW":8.1,"TIME":"2019-11-24","URL":"https://waterdata.usgs.gov/ma/nwis/dv?site_no=01105585","DATUM":"NAD83","COUNT":35,"PERCENTILE":77.79}},
{"type":"Feature","geometry":{"type":"Point","coordinates":[-70.9447679,42.1903779]},"properties":{"STAID":"01105600","STANAME":"OLD SWAMP RIVER NEAR SOUTH WEYMOUTH, MA","ST":"ma","HUC":"01090002","CLASS":6,"FLOW":14.16,"TIME":"2019-11-24","URL":"https://waterdata.usgs.gov/ma/nwis/dv?site_no=01105600","DATUM":"NAD83","COUNT":52,"PERCENTILE":78.4}},
{"type":"Feature","geometry":{"type":"Point","coordinates":[-70.9294444,42.2108333]},"properties":{"STAID":"01105606","STANAME":"WHITMANS POND, WHITMANS POND DAM AT E. WEYMOUTH,MA","ST":"ma","HUC":"01090001","CLASS":0,"FLOW":5.44,"TIME":"2019-11-24","URL":"https://waterdata.usgs.gov/ma/nwis/dv?site_no=01105606","DATUM":"NAD83","COUNT":15,"PERCENTILE":27.55}},
{"type":"Feature","geometry":{"type":"Point","coordinates":[-70.92638889,42.21305556]},"properties":{"STAID":"01105608","STANAME":"WHITMANS POND FISH LADDER AT EAST WEYMOUTH, MA","ST":"ma","HUC":"01090001","CLASS":0,"FLOW":6.42,"TIME":"2019-11-24","URL":"https://waterdata.usgs.gov/ma/nwis/dv?site_no=01105608","DATUM":"NAD83","COUNT":16,"PERCENTILE":42.88}},
{"type":"Feature","geometry":{"type":"Point","coordinates":[-70.8719892,42.2348226]},"properties":{"STAID":"01105638","STANAME":"WEIR RIVER AT LEAVITT STREET AT HINGHAM, MA","ST":"ma","HUC":"01090001","CLASS":0,"FLOW":30.7,"TIME":"2019-11-24","URL":"https://waterdata.usgs.gov/ma/nwis/dv?site_no=01105638","DATUM":"NAD83","COUNT":7,"PERCENTILE":68.28}},
{"type":"Feature","geometry":{"type":"Point","coordinates":[-70.8225415,42.1006571]},"properties":{"STAID":"01105730","STANAME":"INDIAN HEAD RIVER AT HANOVER, MA","ST":"ma","HUC":"01090002","CLASS":5,"FLOW":67.49,"TIME":"2019-11-24","URL":"https://waterdata.usgs.gov/ma/nwis/dv?site_no=01105730","DATUM":"NAD83","COUNT":52,"PERCENTILE":60.69}},
{"type":"Feature","geometry":{"type":"Point","coordinates":[-70.7336491,41.9909362]},"properties":{"STAID":"01105870","STANAME":"JONES RIVER AT KINGSTON, MA","ST":"ma","HUC":"01090002","CLASS":5,"FLOW":32.41,"TIME":"2019-11-24","URL":"https://waterdata.usgs.gov/ma/nwis/dv?site_no=01105870","DATUM":"NAD83","COUNT":52,"PERCENTILE":62.36}},
{"type":"Feature","geometry":{"type":"Point","coordinates":[-70.6225338,41.94177039]},"properties":{"STAID":"01105876","STANAME":"EEL RIVER AT RT 3A NEAR PLYMOUTH, MA","ST":"ma","HUC":"01090002","CLASS":0,"FLOW":50.27,"TIME":"2019-11-24","URL":"https://waterdata.usgs.gov/ma/nwis/dv?site_no=01105876","DATUM":"NAD83","COUNT":14,"PERCENTILE":93.33}},
{"type":"Feature","geometry":{"type":"Point","coordinates":[-70.1069625,41.70011074]},"properties":{"STAID":"01105880","STANAME":"HERRING RIVER AT NORTH HARWICH, MA","ST":"ma","HUC":"01090002","CLASS":6,"FLOW":10.77,"TIME":"2019-11-24","URL":"https://waterdata.usgs.gov/ma/nwis/dv?site_no=01105880","DATUM":"NAD83","COUNT":33,"PERCENTILE":83.49}},
{"type":"Feature","geometry":{"type":"Point","coordinates":[-70.8383696,41.66260446]},"properties":{"STAID":"01105917","STANAME":"MATTAPOISETT RIVER NEAR MATTAPOISETT, MA","ST":"ma","HUC":"01090002","CLASS":0,"FLOW":18.83,"TIME":"2019-11-24","URL":"https://waterdata.usgs.gov/ma/nwis/dv?site_no=01105917","DATUM":"NAD83","COUNT":7,"PERCENTILE":29.79}},
{"type":"Feature","geometry":{"type":"Point","coordinates":[-70.9903171,41.58538185]},"properties":{"STAID":"01105933","STANAME":"PASKAMANSET RIVER NEAR SOUTH DARTMOUTH, MA","ST":"ma","HUC":"01090002","CLASS":0,"FLOW":33.41,"TIME":"2019-11-24","URL":"https://waterdata.usgs.gov/ma/nwis/dv?site_no=01105933","DATUM":"NAD83","COUNT":23,"PERCENTILE":34.92}},
{"type":"Feature","geometry":{"type":"Point","coordinates":[-70.9564307,41.9339903]},"properties":{"STAID":"01108000","STANAME":"TAUNTON RIVER NEAR BRIDGEWATER, MA","ST":"ma","HUC":"01090004","CLASS":5,"FLOW":335.86,"TIME":"2019-11-24","URL":"https://waterdata.usgs.gov/ma/nwis/dv?site_no=01108000","DATUM":"NAD83","COUNT":72,"PERCENTILE":48.76}},
{"type":"Feature","geometry":{"type":"Point","coordinates":[-71.0894897,41.8998232]},"properties":{"STAID":"01108410","STANAME":"MILL RIVER AT SPRING STREET AT TAUNTON, MA","ST":"ma","HUC":"01090004","CLASS":0,"FLOW":40.26,"TIME":"2019-11-24","URL":"https://waterdata.usgs.gov/ma/nwis/dv?site_no=01108410","DATUM":"NAD83","COUNT":12,"PERCENTILE":37.56}},
{"type":"Feature","geometry":{"type":"Point","coordinates":[-71.1767155,41.94760015]},"properties":{"STAID":"01109000","STANAME":"WADING RIVER NEAR NORTON, MA","ST":"ma","HUC":"01090004","CLASS":5,"FLOW":27.77,"TIME":"2019-11-24","URL":"https://waterdata.usgs.gov/ma/nwis/dv?site_no=01109000","DATUM":"NAD83","COUNT":93,"PERCENTILE":26.75}},
{"type":"Feature","geometry":{"type":"Point","coordinates":[-71.12282369,41.8662122]},"properties":{"STAID":"01109060","STANAME":"THREEMILE RIVER AT NORTH DIGHTON, MA","ST":"ma","HUC":"01090004","CLASS":5,"FLOW":75.04,"TIME":"2019-11-24","URL":"https://waterdata.usgs.gov/ma/nwis/dv?site_no=01109060","DATUM":"NAD83","COUNT":52,"PERCENTILE":27.11}},
{"type":"Feature","geometry":{"type":"Point","coordinates":[-71.142824,41.840379]},"properties":{"STAID":"01109070","STANAME":"SEGREGANSET RIVER NEAR DIGHTON, MA","ST":"ma","HUC":"01090004","CLASS":5,"FLOW":15.74,"TIME":"2019-11-24","URL":"https://waterdata.usgs.gov/ma/nwis/dv?site_no=01109070","DATUM":"NAD83","COUNT":52,"PERCENTILE":46.54}},
{"type":"Feature","geometry":{"type":"Point","coordinates":[-71.3503315,41.83093377]},"properties":{"STAID":"01109403","STANAME":"TEN MILE R., PAWTUCKET AVE. AT E. PROVIDENCE, RI","ST":"ri","HUC":"01090004","CLASS":5,"FLOW":65.7,"TIME":"2019-11-24","URL":"https://waterdata.usgs.gov/ri/nwis/dv?site_no=01109403","DATUM":"NAD83","COUNT":33,"PERCENTILE":33.32}},
{"type":"Feature","geometry":{"type":"Point","coordinates":[-71.7650702,42.1889835]},"properties":{"STAID":"01109730","STANAME":"BLACKSTONE RIVER, W. MAIN ST., AT MILLBURY, MA","ST":"ma","HUC":"01090003","CLASS":0,"FLOW":134,"TIME":"2019-11-24","URL":"https://waterdata.usgs.gov/ma/nwis/dv?site_no=01109730","DATUM":"NAD83","COUNT":16,"PERCENTILE":51.6}},
{"type":"Feature","geometry":{"type":"Point","coordinates":[-71.7109023,42.230372]},"properties":{"STAID":"01110000","STANAME":"QUINSIGAMOND RIVER AT NORTH GRAFTON, MA","ST":"ma","HUC":"01090003","CLASS":5,"FLOW":35.56,"TIME":"2019-11-24","URL":"https://waterdata.usgs.gov/ma/nwis/dv?site_no=01110000","DATUM":"NAD83","COUNT":80,"PERCENTILE":54.02}},
{"type":"Feature","geometry":{"type":"Point","coordinates":[-71.6164542,42.05481959]},"properties":{"STAID":"01111212","STANAME":"BLACKSTONE RIVER, RT 122 BRIDGE NEAR UXBRIDGE, MA","ST":"ma","HUC":"01090003","CLASS":0,"FLOW":272.29,"TIME":"2019-11-24","URL":"https://waterdata.usgs.gov/ma/nwis/dv?site_no=01111212","DATUM":"NAD83","COUNT":12,"PERCENTILE":25.48}},
{"type":"Feature","geometry":{"type":"Point","coordinates":[-71.68590049,41.9812093]},"properties":{"STAID":"01111300","STANAME":"NIPMUC RIVER NEAR HARRISVILLE, RI","ST":"ri","HUC":"01090003","CLASS":0,"FLOW":26.29,"TIME":"2019-11-24","URL":"https://waterdata.usgs.gov/ri/nwis/dv?site_no=01111300","DATUM":"NAD83","COUNT":10,"PERCENTILE":73.65}},
{"type":"Feature","geometry":{"type":"Point","coordinates":[-71.56200758,41.99648716]},"properties":{"STAID":"01111500","STANAME":"BRANCH RIVER AT FORESTDALE, RI","ST":"ri","HUC":"01090003","CLASS":5,"FLOW":135.43,"TIME":"2019-11-24","URL":"https://waterdata.usgs.gov/ri/nwis/dv?site_no=01111500","DATUM":"NAD83","COUNT":78,"PERCENTILE":56.02}},
{"type":"Feature","geometry":{"type":"Point","coordinates":[-71.5025613,42.0064871]},"properties":{"STAID":"01112500","STANAME":"BLACKSTONE RIVER AT WOONSOCKET, RI","ST":"ri","HUC":"01090003","CLASS":5,"FLOW":582.71,"TIME":"2019-11-24","URL":"https://waterdata.usgs.gov/ri/nwis/dv?site_no=01112500","DATUM":"NAD83","COUNT":89,"PERCENTILE":53.82}},
{"type":"Feature","geometry":{"type":"Point","coordinates":[-71.38144467,41.8884331]},"properties":{"STAID":"01113895","STANAME":"BLACKSTONE R AT ROOSEVELT ST AT PAWTUCKET RI","ST":"ri","HUC":"01090004","CLASS":0,"FLOW":598.29,"TIME":"2019-11-24","URL":"https://waterdata.usgs.gov/ri/nwis/dv?site_no=01113895","DATUM":"NAD83","COUNT":15,"PERCENTILE":41.43}},
{"type":"Feature","geometry":{"type":"Point","coordinates":[-71.41061208,41.833989]},"properties":{"STAID":"01114000","STANAME":"MOSHASSUCK RIVER AT PROVIDENCE, RI","ST":"ri","HUC":"01090004","CLASS":5,"FLOW":23.34,"TIME":"2019-11-24","URL":"https://waterdata.usgs.gov/ri/nwis/dv?site_no=01114000","DATUM":"NAD83","COUNT":56,"PERCENTILE":38.27}},
{"type":"Feature","geometry":{"type":"Point","coordinates":[-71.4872823,41.8589884]},"properties":{"STAID":"01114500","STANAME":"WOONASQUATUCKET RIVER AT CENTERDALE, RI","ST":"ri","HUC":"01090004","CLASS":5,"FLOW":47.99,"TIME":"2019-11-24","URL":"https://waterdata.usgs.gov/ri/nwis/dv?site_no=01114500","DATUM":"NAD83","COUNT":78,"PERCENTILE":44.48}},
{"type":"Feature","geometry":{"type":"Point","coordinates":[-71.6061754,41.8525992]},"properties":{"STAID":"01115098","STANAME":"PEEPTOAD BROOK AT ELMDALE RD NR NORTH SCITUATE, RI","ST":"ri","HUC":"01090004","CLASS":0,"FLOW":5.53,"TIME":"2019-11-24","URL":"https://waterdata.usgs.gov/ri/nwis/dv?site_no=01115098","DATUM":"NAD83","COUNT":25,"PERCENTILE":36.99}},
{"type":"Feature","geometry":{"type":"Point","coordinates":[-71.6095088,41.8456548]},"properties":{"STAID":"01115110","STANAME":"HUNTINGHOUSE BK AT ELMDALE RD AT N SCITUATE, RI","ST":"ri","HUC":"01090004","CLASS":0,"FLOW":7.73,"TIME":"2019-11-24","URL":"https://waterdata.usgs.gov/ri/nwis/dv?site_no=01115110","DATUM":"NAD83","COUNT":11,"PERCENTILE":52.18}},
{"type":"Feature","geometry":{"type":"Point","coordinates":[-71.6120089,41.83759929]},"properties":{"STAID":"01115114","STANAME":"RUSH BROOK NEAR ELMDALE RD NEAR NORTH SCITUATE, RI","ST":"ri","HUC":"01090004","CLASS":0,"FLOW":8.25,"TIME":"2019-11-24","URL":"https://waterdata.usgs.gov/ri/nwis/dv?site_no=01115114","DATUM":"NAD83","COUNT":10,"PERCENTILE":68.5}},
{"type":"Feature","geometry":{"type":"Point","coordinates":[-71.584508,41.84093269]},"properties":{"STAID":"01115170","STANAME":"MOSWANSICUT STREAM NR NORTH SCITUATE, RI","ST":"ri","HUC":"01090004","CLASS":0,"FLOW":1.58,"TIME":"2019-11-24","URL":"https://waterdata.usgs.gov/ri/nwis/dv?site_no=01115170","DATUM":"NAD83","COUNT":11,"PERCENTILE":31.25}},
{"type":"Feature","geometry":{"type":"Point","coordinates":[-71.5847857,41.79759966]},"properties":{"STAID":"01115183","STANAME":"QUONAPAUG BK AT RT 116 NR NORTH SCITUATE, RI","ST":"ri","HUC":"01090004","CLASS":0,"FLOW":1.59,"TIME":"2019-11-24","URL":"https://waterdata.usgs.gov/ri/nwis/dv?site_no=01115183","DATUM":"NAD83","COUNT":11,"PERCENTILE":23.41}},
{"type":"Feature","geometry":{"type":"Point","coordinates":[-71.7050677,41.8187102]},"properties":{"STAID":"01115187","STANAME":"PONAGANSET RIVER AT SOUTH FOSTER, RI","ST":"ri","HUC":"01090004","CLASS":0,"FLOW":20.97,"TIME":"2019-11-24","URL":"https://waterdata.usgs.gov/ri/nwis/dv?site_no=01115187","DATUM":"NAD83","COUNT":25,"PERCENTILE":59.33}},
{"type":"Feature","geometry":{"type":"Point","coordinates":[-71.70034528,41.8223213]},"properties":{"STAID":"01115190","STANAME":"DOLLY COLE BK AT OLD DANIELSON PK AT S FOSTER, RI","ST":"ri","HUC":"01090004","CLASS":0,"FLOW":4.52,"TIME":"2019-11-24","URL":"https://waterdata.usgs.gov/ri/nwis/dv?site_no=01115190","DATUM":"NAD83","COUNT":11,"PERCENTILE":40.09}},
{"type":"Feature","geometry":{"type":"Point","coordinates":[-71.6986785,41.7906548]},"properties":{"STAID":"01115265","STANAME":"HEMLOCK BROOK AT KING ROAD NR FOSTER, RI","ST":"ri","HUC":"01090004","CLASS":0,"FLOW":2.65,"TIME":"2019-11-24","URL":"https://waterdata.usgs.gov/ri/nwis/dv?site_no=01115265","DATUM":"NAD83","COUNT":11,"PERCENTILE":10.42}},
{"type":"Feature","geometry":{"type":"Point","coordinates":[-71.6672885,41.7853772]},"properties":{"STAID":"01115276","STANAME":"WESTCONNAUG STREAM AT PLAINFIELD PIKE, RI","ST":"ri","HUC":"01090004","CLASS":0,"FLOW":4.79,"TIME":"2019-11-24","URL":"https://waterdata.usgs.gov/ri/nwis/dv?site_no=01115276","DATUM":"NAD83","COUNT":10,"PERCENTILE":47.5}},
{"type":"Feature","geometry":{"type":"Point","coordinates":[-71.6497879,41.80398827]},"properties":{"STAID":"01115280","STANAME":"CORK BK AT ROCKLAND SCITUATE RD NR CLAYVILLE, RI","ST":"ri","HUC":"01090004","CLASS":0,"FLOW":1.22,"TIME":"2019-11-24","URL":"https://waterdata.usgs.gov/ri/nwis/dv?site_no=01115280","DATUM":"NAD83","COUNT":11,"PERCENTILE":25.67}},
{"type":"Feature","geometry":{"type":"Point","coordinates":[-71.6325646,41.6267667]},"properties":{"STAID":"01115630","STANAME":"NOOSENECK RIVER AT NOOSENECK, RI","ST":"ri","HUC":"01090004","CLASS":0,"FLOW":11.52,"TIME":"2019-11-24","URL":"https://waterdata.usgs.gov/ri/nwis/dv?site_no=01115630","DATUM":"NAD83","COUNT":28,"PERCENTILE":46.27}},
{"type":"Feature","geometry":{"type":"Point","coordinates":[-71.5658958,41.69010026]},"properties":{"STAID":"01116000","STANAME":"SOUTH BRANCH PAWTUXET RIVER AT WASHINGTON, RI","ST":"ri","HUC":"01090004","CLASS":5,"FLOW":81.56,"TIME":"2019-11-24","URL":"https://waterdata.usgs.gov/ri/nwis/dv?site_no=01116000","DATUM":"NAD83","COUNT":79,"PERCENTILE":44.29}},
{"type":"Feature","geometry":{"type":"Point","coordinates":[-71.4450575,41.75093399]},"properties":{"STAID":"01116500","STANAME":"PAWTUXET RIVER AT CRANSTON, RI","ST":"ri","HUC":"01090004","CLASS":5,"FLOW":236.43,"TIME":"2019-11-24","URL":"https://waterdata.usgs.gov/ri/nwis/dv?site_no=01116500","DATUM":"NAD83","COUNT":79,"PERCENTILE":50.85}},
{"type":"Feature","geometry":{"type":"Point","coordinates":[-71.47888889,41.63]},"properties":{"STAID":"01116905","STANAME":"HUNT R 250 FT DS FRY BRK AT FRENCHTOWN, RI","ST":"ri","HUC":"01090004","CLASS":0,"FLOW":19.99,"TIME":"2019-11-24","URL":"https://waterdata.usgs.gov/ri/nwis/dv?site_no=01116905","DATUM":"NAD83","COUNT":12,"PERCENTILE":44.26}},
{"type":"Feature","geometry":{"type":"Point","coordinates":[-71.4445016,41.6412122]},"properties":{"STAID":"01117000","STANAME":"HUNT RIVER NEAR EAST GREENWICH, RI","ST":"ri","HUC":"01090004","CLASS":5,"FLOW":31.94,"TIME":"2019-11-24","URL":"https://waterdata.usgs.gov/ri/nwis/dv?site_no=01117000","DATUM":"NAD83","COUNT":78,"PERCENTILE":54.25}},
{"type":"Feature","geometry":{"type":"Point","coordinates":[-71.5511719,41.4823233]},"properties":{"STAID":"01117350","STANAME":"CHIPUXET RIVER AT WEST KINGSTON, RI","ST":"ri","HUC":"01090005","CLASS":1,"FLOW":1.2,"TIME":"2019-11-24","URL":"https://waterdata.usgs.gov/ri/nwis/dv?site_no=01117350","DATUM":"NAD83","COUNT":48,"PERCENTILE":2.04}},
{"type":"Feature","geometry":{"type":"Point","coordinates":[-71.568673,41.53898957]},"properties":{"STAID":"01117370","STANAME":"QUEEN R AT LIBERTY RD AT LIBERTY RI","ST":"ri","HUC":"01090005","CLASS":0,"FLOW":16.87,"TIME":"2019-11-24","URL":"https://waterdata.usgs.gov/ri/nwis/dv?site_no=01117370","DATUM":"NAD83","COUNT":21,"PERCENTILE":34.96}},
{"type":"Feature","geometry":{"type":"Point","coordinates":[-71.6047849,41.4767673]},"properties":{"STAID":"01117420","STANAME":"USQUEPAUG RIVER NEAR USQUEPAUG, RI","ST":"ri","HUC":"01090005","CLASS":5,"FLOW":41.2,"TIME":"2019-11-24","URL":"https://waterdata.usgs.gov/ri/nwis/dv?site_no=01117420","DATUM":"NAD83","COUNT":45,"PERCENTILE":43.1}},
{"type":"Feature","geometry":{"type":"Point","coordinates":[-71.6211738,41.44621186]},"properties":{"STAID":"01117430","STANAME":"PAWCATUCK RIVER AT KENYON, RI","ST":"ri","HUC":"01090005","CLASS":0,"FLOW":39.49,"TIME":"2019-11-24","URL":"https://waterdata.usgs.gov/ri/nwis/dv?site_no=01117430","DATUM":"NAD83","COUNT":17,"PERCENTILE":23.91}},
{"type":"Feature","geometry":{"type":"Point","coordinates":[-71.6281194,41.49260037]},"properties":{"STAID":"01117468","STANAME":"BEAVER RIVER NEAR USQUEPAUG, RI","ST":"ri","HUC":"01090005","CLASS":5,"FLOW":14.4,"TIME":"2019-11-24","URL":"https://waterdata.usgs.gov/ri/nwis/dv?site_no=01117468","DATUM":"NAD83","COUNT":43,"PERCENTILE":53.91}},
{"type":"Feature","geometry":{"type":"Point","coordinates":[-71.68089828,41.44510024]},"properties":{"STAID":"01117500","STANAME":"PAWCATUCK RIVER AT WOOD RIVER JUNCTION, RI","ST":"ri","HUC":"01090005","CLASS":5,"FLOW":111.57,"TIME":"2019-11-24","URL":"https://waterdata.usgs.gov/ri/nwis/dv?site_no=01117500","DATUM":"NAD83","COUNT":77,"PERCENTILE":49.58}},
{"type":"Feature","geometry":{"type":"Point","coordinates":[-71.72062318,41.5739884]},"properties":{"STAID":"01117800","STANAME":"WOOD RIVER NEAR ARCADIA, RI","ST":"ri","HUC":"01090005","CLASS":5,"FLOW":35.01,"TIME":"2019-11-24","URL":"https://waterdata.usgs.gov/ri/nwis/dv?site_no=01117800","DATUM":"NAD83","COUNT":53,"PERCENTILE":26.59}},
{"type":"Feature","geometry":{"type":"Point","coordinates":[-71.7164561,41.49815516]},"properties":{"STAID":"01118000","STANAME":"WOOD RIVER AT HOPE VALLEY, RI","ST":"ri","HUC":"01090005","CLASS":5,"FLOW":74.36,"TIME":"2019-11-24","URL":"https://waterdata.usgs.gov/ri/nwis/dv?site_no=01118000","DATUM":"NAD83","COUNT":78,"PERCENTILE":31.11}},
{"type":"Feature","geometry":{"type":"Point","coordinates":[-71.8342361,41.4748222]},"properties":{"STAID":"01118300","STANAME":"PENDLETON HILL BROOK NEAR CLARKS FALLS, CT","ST":"ct","HUC":"01090005","CLASS":5,"FLOW":4.94,"TIME":"2019-11-24","URL":"https://waterdata.usgs.gov/ct/nwis/dv?site_no=01118300","DATUM":"NAD83","COUNT":61,"PERCENTILE":39.13}},
{"type":"Feature","geometry":{"type":"Point","coordinates":[-71.8331247,41.38371065]},"properties":{"STAID":"01118500","STANAME":"PAWCATUCK RIVER AT WESTERLY, RI","ST":"ri","HUC":"01090005","CLASS":5,"FLOW":340.71,"TIME":"2019-11-24","URL":"https://waterdata.usgs.gov/ri/nwis/dv?site_no=01118500","DATUM":"NAD83","COUNT":77,"PERCENTILE":48.15}},
{"type":"Feature","geometry":{"type":"Point","coordinates":[-72.3128472,41.8240111]},"properties":{"STAID":"01119382","STANAME":"WILLIMANTIC RIVER AT MERROW RD. NEAR MERROW, CT","ST":"ct","HUC":"01100002","CLASS":0,"FLOW":147.29,"TIME":"2019-11-24","URL":"https://waterdata.usgs.gov/ct/nwis/dv?site_no=01119382","DATUM":"NAD83","COUNT":8,"PERCENTILE":77.22}},
{"type":"Feature","geometry":{"type":"Point","coordinates":[-72.26563469,41.7506544]},"properties":{"STAID":"01119500","STANAME":"WILLIMANTIC RIVER NEAR COVENTRY, CT","ST":"ct","HUC":"01100002","CLASS":5,"FLOW":170.57,"TIME":"2019-11-24","URL":"https://waterdata.usgs.gov/ct/nwis/dv?site_no=01119500","DATUM":"NAD83","COUNT":86,"PERCENTILE":58.39}},
{"type":"Feature","geometry":{"type":"Point","coordinates":[-72.1061694,41.81616944]},"properties":{"STAID":"01120790","STANAME":"NATCHAUG RIVER AT MARCY RD. NEAR CHAPLIN, CT","ST":"ct","HUC":"01100002","CLASS":0,"FLOW":88.04,"TIME":"2019-11-24","URL":"https://waterdata.usgs.gov/ct/nwis/dv?site_no=01120790","DATUM":"NAD83","COUNT":11,"PERCENTILE":61.04}},
{"type":"Feature","geometry":{"type":"Point","coordinates":[-72.1689662,41.8437089]},"properties":{"STAID":"01121000","STANAME":"MOUNT HOPE RIVER NEAR WARRENVILLE, CT","ST":"ct","HUC":"01100002","CLASS":5,"FLOW":58.13,"TIME":"2019-11-24","URL":"https://waterdata.usgs.gov/ct/nwis/dv?site_no=01121000","DATUM":"NAD83","COUNT":77,"PERCENTILE":74.32}},
{"type":"Feature","geometry":{"type":"Point","coordinates":[-72.2427806,41.83319444]},"properties":{"STAID":"01121330","STANAME":"FENTON RIVER AT MANSFIELD, CT","ST":"ct","HUC":"01100002","CLASS":0,"FLOW":31.34,"TIME":"2019-11-24","URL":"https://waterdata.usgs.gov/ct/nwis/dv?site_no=01121330","DATUM":"NAD83","COUNT":11,"PERCENTILE":75.82}},
{"type":"Feature","geometry":{"type":"Point","coordinates":[-72.195575,41.7201]},"properties":{"STAID":"01122000","STANAME":"NATCHAUG RIVER AT WILLIMANTIC, CT","ST":"ct","HUC":"01100002","CLASS":5,"FLOW":156.71,"TIME":"2019-11-24","URL":"https://waterdata.usgs.gov/ct/nwis/dv?site_no=01122000","DATUM":"NAD83","COUNT":81,"PERCENTILE":37.95}},
{"type":"Feature","geometry":{"type":"Point","coordinates":[-72.1820223,41.70037644]},"properties":{"STAID":"01122500","STANAME":"SHETUCKET RIVER NEAR WILLIMANTIC, CT","ST":"ct","HUC":"01100002","CLASS":5,"FLOW":461.86,"TIME":"2019-11-24","URL":"https://waterdata.usgs.gov/ct/nwis/dv?site_no=01122500","DATUM":"NAD83","COUNT":89,"PERCENTILE":48.49}},
{"type":"Feature","geometry":{"type":"Point","coordinates":[-72.05229807,41.6717651]},"properties":{"STAID":"01123000","STANAME":"LITTLE RIVER NEAR HANOVER, CT","ST":"ct","HUC":"01100002","CLASS":5,"FLOW":40.73,"TIME":"2019-11-24","URL":"https://waterdata.usgs.gov/ct/nwis/dv?site_no=01123000","DATUM":"NAD83","COUNT":66,"PERCENTILE":53.06}},
{"type":"Feature","geometry":{"type":"Point","coordinates":[-72.1261306,42.108375]},"properties":{"STAID":"01123360","STANAME":"QUINEBAUG R BL E BRIMFIELD DAM AT FISKDALE, MA","ST":"ma","HUC":"01100001","CLASS":5,"FLOW":103.8,"TIME":"2019-11-24","URL":"https://waterdata.usgs.gov/ma/nwis/dv?site_no=01123360","DATUM":"NAD83","COUNT":33,"PERCENTILE":46.92}},
{"type":"Feature","geometry":{"type":"Point","coordinates":[-72.0583806,42.08261944]},"properties":{"STAID":"01123600","STANAME":"QUINEBAUG R BL WESTVILLE DAM NR SOUTHBRIDGE, MA","ST":"ma","HUC":"01100001","CLASS":5,"FLOW":142.43,"TIME":"2019-11-24","URL":"https://waterdata.usgs.gov/ma/nwis/dv?site_no=01123600","DATUM":"NAD83","COUNT":43,"PERCENTILE":55.91}},
{"type":"Feature","geometry":{"type":"Point","coordinates":[-71.9556289,42.0223189]},"properties":{"STAID":"01124000","STANAME":"QUINEBAUG RIVER AT QUINEBAUG, CT","ST":"ct","HUC":"01100001","CLASS":5,"FLOW":221.71,"TIME":"2019-11-24","URL":"https://waterdata.usgs.gov/ct/nwis/dv?site_no=01124000","DATUM":"NAD83","COUNT":86,"PERCENTILE":60.99}},
{"type":"Feature","geometry":{"type":"Point","coordinates":[-71.8995972,41.94356667]},"properties":{"STAID":"01124151","STANAME":"QUINEBAUG RIVER AT WEST THOMPSON, CT","ST":"ct","HUC":"01100001","CLASS":5,"FLOW":203.71,"TIME":"2019-11-24","URL":"https://waterdata.usgs.gov/ct/nwis/dv?site_no=01124151","DATUM":"NAD83","COUNT":42,"PERCENTILE":52.7}},
{"type":"Feature","geometry":{"type":"Point","coordinates":[-71.8809055,42.1187063]},"properties":{"STAID":"01124350","STANAME":"FRENCH RIVER BELOW DAM, AT HODGES VILLAGE, MA","ST":"ma","HUC":"01100001","CLASS":0,"FLOW":0,"TIME":"","URL":"https://waterdata.usgs.gov/ma/nwis/dv?site_no=01124350","DATUM":"NAD83","COUNT":0,"PERCENTILE":0}},
{"type":"Feature","geometry":{"type":"Point","coordinates":[-71.89007238,42.11592856]},"properties":{"STAID":"01124500","STANAME":"LITTLE RIVER NEAR OXFORD, MA","ST":"ma","HUC":"01100001","CLASS":0,"FLOW":0,"TIME":"","URL":"https://waterdata.usgs.gov/ma/nwis/dv?site_no=01124500","DATUM":"NAD83","COUNT":0,"PERCENTILE":0}},
{"type":"Feature","geometry":{"type":"Point","coordinates":[-71.90051389,41.97846389]},"properties":{"STAID":"01125100","STANAME":"FRENCH RIVER AT NORTH GROSVENORDALE, CT","ST":"ct","HUC":"01100001","CLASS":0,"FLOW":127.14,"TIME":"2019-11-24","URL":"https://waterdata.usgs.gov/ct/nwis/dv?site_no=01125100","DATUM":"NAD83","COUNT":16,"PERCENTILE":50.36}},
{"type":"Feature","geometry":{"type":"Point","coordinates":[-71.9300083,41.92784444]},"properties":{"STAID":"01125490","STANAME":"LITTLE RIVER AT HARRISVILLE, CT","ST":"ct","HUC":"01100001","CLASS":0,"FLOW":40.5,"TIME":"2019-11-24","URL":"https://waterdata.usgs.gov/ct/nwis/dv?site_no=01125490","DATUM":"NAD83","COUNT":16,"PERCENTILE":72.54}},
{"type":"Feature","geometry":{"type":"Point","coordinates":[-71.91386389,41.909475]},"properties":{"STAID":"01125500","STANAME":"QUINEBAUG RIVER AT PUTNAM, CT","ST":"ct","HUC":"01100001","CLASS":5,"FLOW":392.86,"TIME":"2019-11-24","URL":"https://waterdata.usgs.gov/ct/nwis/dv?site_no=01125500","DATUM":"NAD83","COUNT":61,"PERCENTILE":57.16}},
{"type":"Feature","geometry":{"type":"Point","coordinates":[-71.9840944,41.59749167]},"properties":{"STAID":"01127000","STANAME":"QUINEBAUG RIVER AT JEWETT CITY, CT","ST":"ct","HUC":"01100001","CLASS":5,"FLOW":916.86,"TIME":"2019-11-24","URL":"https://waterdata.usgs.gov/ct/nwis/dv?site_no=01127000","DATUM":"NAD83","COUNT":101,"PERCENTILE":52.88}},
{"type":"Feature","geometry":{"type":"Point","coordinates":[-72.1214666,41.5587094]},"properties":{"STAID":"01127500","STANAME":"YANTIC RIVER AT YANTIC, CT","ST":"ct","HUC":"01100003","CLASS":5,"FLOW":145.96,"TIME":"2019-11-24","URL":"https://waterdata.usgs.gov/ct/nwis/dv?site_no=01127500","DATUM":"NAD83","COUNT":88,"PERCENTILE":62.89}},
{"type":"Feature","geometry":{"type":"Point","coordinates":[-71.4439704,45.04032368]},"properties":{"STAID":"01129200","STANAME":"CONNECTICUT R BELOW INDIAN STREAM NR PITTSBURG, NH","ST":"nh","HUC":"01080101","CLASS":5,"FLOW":398.29,"TIME":"2019-11-24","URL":"https://waterdata.usgs.gov/nh/nwis/dv?site_no=01129200","DATUM":"NAD83","COUNT":62,"PERCENTILE":37.33}},
{"type":"Feature","geometry":{"type":"Point","coordinates":[-71.63120018,44.74977166]},"properties":{"STAID":"01129500","STANAME":"CONNECTICUT RIVER AT NORTH STRATFORD, NH","ST":"nh","HUC":"01080101","CLASS":5,"FLOW":1114.71,"TIME":"2019-11-24","URL":"https://waterdata.usgs.gov/nh/nwis/dv?site_no=01129500","DATUM":"NAD83","COUNT":88,"PERCENTILE":35.91}},
{"type":"Feature","geometry":{"type":"Point","coordinates":[-71.4689721,44.62505316]},"properties":{"STAID":"01130000","STANAME":"UPPER AMMONOOSUC RIVER NEAR GROVETON, NH","ST":"nh","HUC":"01080101","CLASS":5,"FLOW":371.71,"TIME":"2019-11-24","URL":"https://waterdata.usgs.gov/nh/nwis/dv?site_no=01130000","DATUM":"NAD83","COUNT":72,"PERCENTILE":48.85}},
{"type":"Feature","geometry":{"type":"Point","coordinates":[-71.7206438,44.4100591]},"properties":{"STAID":"01131500","STANAME":"CONNECTICUT RIVER NEAR DALTON, NH","ST":"nh","HUC":"01080101","CLASS":5,"FLOW":2157.14,"TIME":"2019-11-24","URL":"https://waterdata.usgs.gov/nh/nwis/dv?site_no=01131500","DATUM":"NAD83","COUNT":90,"PERCENTILE":38.91}},
{"type":"Feature","geometry":{"type":"Point","coordinates":[-71.8975942,44.63394195]},"properties":{"STAID":"01133000","STANAME":"EAST BRANCH PASSUMPSIC RIVER NEAR EAST HAVEN, VT","ST":"vt","HUC":"01080102","CLASS":5,"FLOW":98.7,"TIME":"2019-11-24","URL":"https://waterdata.usgs.gov/vt/nwis/dv?site_no=01133000","DATUM":"NAD83","COUNT":57,"PERCENTILE":60.07}},
{"type":"Feature","geometry":{"type":"Point","coordinates":[-71.8373143,44.5117231]},"properties":{"STAID":"01134500","STANAME":"MOOSE RIVER AT VICTORY, VT","ST":"vt","HUC":"01080102","CLASS":5,"FLOW":88.01,"TIME":"2019-11-24","URL":"https://waterdata.usgs.gov/vt/nwis/dv?site_no=01134500","DATUM":"NAD83","COUNT":71,"PERCENTILE":33.71}},
{"type":"Feature","geometry":{"type":"Point","coordinates":[-72.1245431,44.47616707]},"properties":{"STAID":"01135150","STANAME":"POPE BROOK (SITE W-3) NEAR NORTH DANVILLE, VT","ST":"vt","HUC":"01080102","CLASS":0,"FLOW":4.69,"TIME":"2019-11-24","URL":"https://waterdata.usgs.gov/vt/nwis/dv?site_no=01135150","DATUM":"NAD83","COUNT":26,"PERCENTILE":45}},
{"type":"Feature","geometry":{"type":"Point","coordinates":[-72.03842899,44.4353353]},"properties":{"STAID":"01135300","STANAME":"SLEEPERS RIVER (SITE W-5) NEAR ST. JOHNSBURY, VT","ST":"vt","HUC":"01080102","CLASS":0,"FLOW":53.59,"TIME":"2019-11-24","URL":"https://waterdata.usgs.gov/vt/nwis/dv?site_no=01135300","DATUM":"NAD83","COUNT":27,"PERCENTILE":52.72}},
{"type":"Feature","geometry":{"type":"Point","coordinates":[-72.0392613,44.3656147]},"properties":{"STAID":"01135500","STANAME":"PASSUMPSIC RIVER AT PASSUMPSIC, VT","ST":"vt","HUC":"01080102","CLASS":5,"FLOW":688,"TIME":"2019-11-24","URL":"https://waterdata.usgs.gov/vt/nwis/dv?site_no=01135500","DATUM":"NAD83","COUNT":89,"PERCENTILE":58.7}},
{"type":"Feature","geometry":{"type":"Point","coordinates":[-71.6303617,44.2686741]},"properties":{"STAID":"01137500","STANAME":"AMMONOOSUC RIVER AT BETHLEHEM JUNCTION, NH","ST":"nh","HUC":"01080101","CLASS":5,"FLOW":141.29,"TIME":"2019-11-24","URL":"https://waterdata.usgs.gov/nh/nwis/dv?site_no=01137500","DATUM":"NAD83","COUNT":79,"PERCENTILE":38.02}},
{"type":"Feature","geometry":{"type":"Point","coordinates":[-72.0417577,44.15339689]},"properties":{"STAID":"01138500","STANAME":"CONNECTICUT RIVER AT WELLS RIVER, VT","ST":"vt","HUC":"01080101","CLASS":4,"FLOW":2671.43,"TIME":"2019-11-24","URL":"https://waterdata.usgs.gov/vt/nwis/dv?site_no=01138500","DATUM":"NAD83","COUNT":67,"PERCENTILE":24.17}},
{"type":"Feature","geometry":{"type":"Point","coordinates":[-72.0650915,44.1503413]},"properties":{"STAID":"01139000","STANAME":"WELLS RIVER AT WELLS RIVER, VT","ST":"vt","HUC":"01080103","CLASS":0,"FLOW":0,"TIME":"","URL":"https://waterdata.usgs.gov/vt/nwis/dv?site_no=01139000","DATUM":"NAD83","COUNT":78,"PERCENTILE":0}},
{"type":"Feature","geometry":{"type":"Point","coordinates":[-72.33565327,44.0928419]},"properties":{"STAID":"01139800","STANAME":"EAST ORANGE BRANCH AT EAST ORANGE, VT","ST":"vt","HUC":"01080103","CLASS":5,"FLOW":10.12,"TIME":"2019-11-24","URL":"https://waterdata.usgs.gov/vt/nwis/dv?site_no=01139800","DATUM":"NAD83","COUNT":59,"PERCENTILE":43.58}},
{"type":"Feature","geometry":{"type":"Point","coordinates":[-72.3359268,43.83590197]},"properties":{"STAID":"01140817","STANAME":"ELIZABETH MINE DISCHARGE NR S STRAFFORD, VT","ST":"vt","HUC":"01080103","CLASS":0,"FLOW":0,"TIME":"","URL":"https://waterdata.usgs.gov/vt/nwis/dv?site_no=01140817","DATUM":"NAD83","COUNT":1,"PERCENTILE":0}},
{"type":"Feature","geometry":{"type":"Point","coordinates":[-72.6578821,43.93450969]},"properties":{"STAID":"01142500","STANAME":"AYERS BROOK AT RANDOLPH, VT","ST":"vt","HUC":"01080105","CLASS":5,"FLOW":39.89,"TIME":"2019-11-24","URL":"https://waterdata.usgs.gov/vt/nwis/dv?site_no=01142500","DATUM":"NAD83","COUNT":78,"PERCENTILE":58.57}},
{"type":"Feature","geometry":{"type":"Point","coordinates":[-72.418149,43.71423614]},"properties":{"STAID":"01144000","STANAME":"WHITE RIVER AT WEST HARTFORD, VT","ST":"vt","HUC":"01080105","CLASS":5,"FLOW":1014.71,"TIME":"2019-11-24","URL":"https://waterdata.usgs.gov/vt/nwis/dv?site_no=01144000","DATUM":"NAD83","COUNT":102,"PERCENTILE":59.24}},
{"type":"Feature","geometry":{"type":"Point","coordinates":[-72.3123134,43.64618187]},"properties":{"STAID":"01144500","STANAME":"CONNECTICUT RIVER AT WEST LEBANON, NH","ST":"nh","HUC":"01080105","CLASS":5,"FLOW":4312.86,"TIME":"2019-11-24","URL":"https://waterdata.usgs.gov/nh/nwis/dv?site_no=01144500","DATUM":"NAD83","COUNT":106,"PERCENTILE":29.05}},
{"type":"Feature","geometry":{"type":"Point","coordinates":[-72.7589899,43.62229069]},"properties":{"STAID":"01150900","STANAME":"OTTAUQUECHEE RIVER NEAR WEST BRIDGEWATER, VT","ST":"vt","HUC":"01080106","CLASS":5,"FLOW":52.11,"TIME":"2019-11-24","URL":"https://waterdata.usgs.gov/vt/nwis/dv?site_no=01150900","DATUM":"NAD83","COUNT":33,"PERCENTILE":57.48}},
{"type":"Feature","geometry":{"type":"Point","coordinates":[-72.35425819,43.60257077]},"properties":{"STAID":"01151500","STANAME":"OTTAUQUECHEE RIVER AT NORTH HARTLAND, VT","ST":"vt","HUC":"01080106","CLASS":5,"FLOW":306.14,"TIME":"2019-11-24","URL":"https://waterdata.usgs.gov/vt/nwis/dv?site_no=01151500","DATUM":"NAD83","COUNT":88,"PERCENTILE":52.49}},
{"type":"Feature","geometry":{"type":"Point","coordinates":[-72.36203409,43.38757327]},"properties":{"STAID":"01152500","STANAME":"SUGAR RIVER AT WEST CLAREMONT, NH","ST":"nh","HUC":"01080104","CLASS":5,"FLOW":258.29,"TIME":"2019-11-24","URL":"https://waterdata.usgs.gov/nh/nwis/dv?site_no=01152500","DATUM":"NAD83","COUNT":90,"PERCENTILE":45.09}},
{"type":"Feature","geometry":{"type":"Point","coordinates":[-72.51481258,43.33340716]},"properties":{"STAID":"01153000","STANAME":"BLACK RIVER AT NORTH SPRINGFIELD, VT","ST":"vt","HUC":"01080106","CLASS":5,"FLOW":188.29,"TIME":"2019-11-24","URL":"https://waterdata.usgs.gov/vt/nwis/dv?site_no=01153000","DATUM":"NAD83","COUNT":59,"PERCENTILE":51.19}},
{"type":"Feature","geometry":{"type":"Point","coordinates":[-72.48508889,43.1917433]},"properties":{"STAID":"01153550","STANAME":"WILLIAMS RIVER NEAR ROCKINGHAM VT","ST":"vt","HUC":"01080107","CLASS":5,"FLOW":126.8,"TIME":"2019-11-24","URL":"https://waterdata.usgs.gov/vt/nwis/dv?site_no=01153550","DATUM":"NAD83","COUNT":32,"PERCENTILE":39.5}},
{"type":"Feature","geometry":{"type":"Point","coordinates":[-72.4881444,43.13757777]},"properties":{"STAID":"01154000","STANAME":"SAXTONS RIVER AT SAXTONS RIVER, VT","ST":"vt","HUC":"01080107","CLASS":5,"FLOW":80.21,"TIME":"2019-11-24","URL":"https://waterdata.usgs.gov/vt/nwis/dv?site_no=01154000","DATUM":"NAD83","COUNT":59,"PERCENTILE":47.12}},
{"type":"Feature","geometry":{"type":"Point","coordinates":[-72.4367549,43.12618905]},"properties":{"STAID":"01154500","STANAME":"CONNECTICUT RIVER AT NORTH WALPOLE, NH","ST":"nh","HUC":"01080104","CLASS":5,"FLOW":6032.86,"TIME":"2019-11-24","URL":"https://waterdata.usgs.gov/nh/nwis/dv?site_no=01154500","DATUM":"NAD83","COUNT":76,"PERCENTILE":34.22}},
{"type":"Feature","geometry":{"type":"Point","coordinates":[-72.3616667,43.14944444]},"properties":{"STAID":"01154950","STANAME":"COLD RIVER AT HIGH STREET, AT ALSTEAD, NH","ST":"nh","HUC":"01080104","CLASS":0,"FLOW":84.49,"TIME":"2019-11-24","URL":"https://waterdata.usgs.gov/nh/nwis/dv?site_no=01154950","DATUM":"NAD83","COUNT":9,"PERCENTILE":37.96}},
{"type":"Feature","geometry":{"type":"Point","coordinates":[-72.775374,43.1089665]},"properties":{"STAID":"01155500","STANAME":"WEST RIVER AT JAMAICA, VT","ST":"vt","HUC":"01080107","CLASS":5,"FLOW":326.43,"TIME":"2019-11-24","URL":"https://waterdata.usgs.gov/vt/nwis/dv?site_no=01155500","DATUM":"NAD83","COUNT":66,"PERCENTILE":55.89}},
{"type":"Feature","geometry":{"type":"Point","coordinates":[-72.2700858,43.03924586]},"properties":{"STAID":"01157000","STANAME":"ASHUELOT RIVER NEAR GILSUM, NH","ST":"nh","HUC":"01080201","CLASS":5,"FLOW":96.97,"TIME":"2019-11-24","URL":"https://waterdata.usgs.gov/nh/nwis/dv?site_no=01157000","DATUM":"NAD83","COUNT":67,"PERCENTILE":55.93}},
{"type":"Feature","geometry":{"type":"Point","coordinates":[-72.31119719,42.9948023]},"properties":{"STAID":"01158000","STANAME":"ASHUELOT RIVER BELOW SURRY MT DAM, NEAR KEENE, NH","ST":"nh","HUC":"01080201","CLASS":5,"FLOW":118.04,"TIME":"2019-11-24","URL":"https://waterdata.usgs.gov/nh/nwis/dv?site_no=01158000","DATUM":"NAD83","COUNT":68,"PERCENTILE":43.64}},
{"type":"Feature","geometry":{"type":"Point","coordinates":[-72.279252,42.9192478]},"properties":{"STAID":"01158110","STANAME":"ASHUELOT RIVER ABOVE THE BRANCH, AT KEENE, NH","ST":"nh","HUC":"01080201","CLASS":0,"FLOW":129.61,"TIME":"2019-11-24","URL":"https://waterdata.usgs.gov/nh/nwis/dv?site_no=01158110","DATUM":"NAD83","COUNT":3,"PERCENTILE":36.14}},
{"type":"Feature","geometry":{"type":"Point","coordinates":[-72.3281415,42.87147076]},"properties":{"STAID":"01160350","STANAME":"ASHUELOT RIVER AT WEST SWANZEY, NH","ST":"nh","HUC":"01080201","CLASS":0,"FLOW":395,"TIME":"2019-11-24","URL":"https://waterdata.usgs.gov/nh/nwis/dv?site_no=01160350","DATUM":"NAD83","COUNT":24,"PERCENTILE":39.03}},
{"type":"Feature","geometry":{"type":"Point","coordinates":[-72.4861996,42.78591586]},"properties":{"STAID":"01161000","STANAME":"ASHUELOT RIVER AT HINSDALE, NH","ST":"nh","HUC":"01080201","CLASS":5,"FLOW":457.29,"TIME":"2019-11-24","URL":"https://waterdata.usgs.gov/nh/nwis/dv?site_no=01161000","DATUM":"NAD83","COUNT":109,"PERCENTILE":48.53}},
{"type":"Feature","geometry":{"type":"Point","coordinates":[-72.08341388,42.6842527]},"properties":{"STAID":"01162000","STANAME":"MILLERS RIVER NEAR WINCHENDON, MA","ST":"ma","HUC":"01080202","CLASS":5,"FLOW":99.83,"TIME":"2019-11-24","URL":"https://waterdata.usgs.gov/ma/nwis/dv?site_no=01162000","DATUM":"NAD83","COUNT":102,"PERCENTILE":48.85}},
{"type":"Feature","geometry":{"type":"Point","coordinates":[-72.1150812,42.6825859]},"properties":{"STAID":"01162500","STANAME":"PRIEST BROOK NEAR WINCHENDON, MA","ST":"ma","HUC":"01080202","CLASS":5,"FLOW":22.84,"TIME":"2019-11-24","URL":"https://waterdata.usgs.gov/ma/nwis/dv?site_no=01162500","DATUM":"NAD83","COUNT":100,"PERCENTILE":45.95}},
{"type":"Feature","geometry":{"type":"Point","coordinates":[-72.04091198,42.58842124]},"properties":{"STAID":"01163200","STANAME":"OTTER RIVER AT OTTER RIVER, MA","ST":"ma","HUC":"01080202","CLASS":5,"FLOW":52.43,"TIME":"2019-11-24","URL":"https://waterdata.usgs.gov/ma/nwis/dv?site_no=01163200","DATUM":"NAD83","COUNT":54,"PERCENTILE":44.7}},
{"type":"Feature","geometry":{"type":"Point","coordinates":[-72.43786449,42.5975862]},"properties":{"STAID":"01166500","STANAME":"MILLERS RIVER AT ERVING, MA","ST":"ma","HUC":"01080202","CLASS":5,"FLOW":434.57,"TIME":"2019-11-24","URL":"https://waterdata.usgs.gov/ma/nwis/dv?site_no=01166500","DATUM":"NAD83","COUNT":104,"PERCENTILE":48.76}},
{"type":"Feature","geometry":{"type":"Point","coordinates":[-73.0301667,42.66669444]},"properties":{"STAID":"01168250","STANAME":"COLD RIVER AT FLORIDA, MA","ST":"ma","HUC":"01080203","CLASS":0,"FLOW":18.1,"TIME":"2019-11-24","URL":"https://waterdata.usgs.gov/ma/nwis/dv?site_no=01168250","DATUM":"NAD83","COUNT":3,"PERCENTILE":75}},
{"type":"Feature","geometry":{"type":"Point","coordinates":[-72.8541944,42.626]},"properties":{"STAID":"01168500","STANAME":"DEERFIELD RIVER AT CHARLEMONT, MA","ST":"ma","HUC":"01080203","CLASS":4,"FLOW":478.71,"TIME":"2019-11-24","URL":"https://waterdata.usgs.gov/ma/nwis/dv?site_no=01168500","DATUM":"NAD83","COUNT":106,"PERCENTILE":22.11}},
{"type":"Feature","geometry":{"type":"Point","coordinates":[-72.7250922,42.63841775]},"properties":{"STAID":"01169000","STANAME":"NORTH RIVER AT SHATTUCKVILLE, MA","ST":"ma","HUC":"01080203","CLASS":5,"FLOW":121.3,"TIME":"2019-11-24","URL":"https://waterdata.usgs.gov/ma/nwis/dv?site_no=01169000","DATUM":"NAD83","COUNT":79,"PERCENTILE":44.6}},
{"type":"Feature","geometry":{"type":"Point","coordinates":[-72.69370179,42.5420303]},"properties":{"STAID":"01169900","STANAME":"SOUTH RIVER NEAR CONWAY, MA","ST":"ma","HUC":"01080203","CLASS":4,"FLOW":19.02,"TIME":"2019-11-24","URL":"https://waterdata.usgs.gov/ma/nwis/dv?site_no=01169900","DATUM":"NAD83","COUNT":52,"PERCENTILE":21.92}},
{"type":"Feature","geometry":{"type":"Point","coordinates":[-72.65342328,42.53591957]},"properties":{"STAID":"01170000","STANAME":"DEERFIELD RIVER NEAR WEST DEERFIELD, MA","ST":"ma","HUC":"01080203","CLASS":5,"FLOW":697.14,"TIME":"2019-11-24","URL":"https://waterdata.usgs.gov/ma/nwis/dv?site_no=01170000","DATUM":"NAD83","COUNT":80,"PERCENTILE":27.8}},
{"type":"Feature","geometry":{"type":"Point","coordinates":[-72.67064738,42.70341695]},"properties":{"STAID":"01170100","STANAME":"GREEN RIVER NEAR COLRAIN, MA","ST":"ma","HUC":"01080203","CLASS":5,"FLOW":47.5,"TIME":"2019-11-24","URL":"https://waterdata.usgs.gov/ma/nwis/dv?site_no=01170100","DATUM":"NAD83","COUNT":51,"PERCENTILE":30.3}},
{"type":"Feature","geometry":{"type":"Point","coordinates":[-72.5745,42.5802222]},"properties":{"STAID":"01170500","STANAME":"CONNECTICUT RIVER AT MONTAGUE CITY, MA","ST":"ma","HUC":"01080201","CLASS":5,"FLOW":8998.57,"TIME":"2019-11-24","URL":"https://waterdata.usgs.gov/ma/nwis/dv?site_no=01170500","DATUM":"NAD83","COUNT":114,"PERCENTILE":36.85}},
{"type":"Feature","geometry":{"type":"Point","coordinates":[-72.6650907,42.31897839]},"properties":{"STAID":"01171500","STANAME":"MILL RIVER AT NORTHAMPTON, MA","ST":"ma","HUC":"01080201","CLASS":5,"FLOW":42.6,"TIME":"2019-11-24","URL":"https://waterdata.usgs.gov/ma/nwis/dv?site_no=01171500","DATUM":"NAD83","COUNT":81,"PERCENTILE":31.88}},
{"type":"Feature","geometry":{"type":"Point","coordinates":[-72.6093111,42.19146944]},"properties":{"STAID":"01172010","STANAME":"CONNECTICUT R AT I-391 BRIDGE AT HOLYOKE, MA","ST":"ma","HUC":"01080201","CLASS":0,"FLOW":12028.57,"TIME":"2019-11-24","URL":"https://waterdata.usgs.gov/ma/nwis/dv?site_no=01172010","DATUM":"NAD83","COUNT":14,"PERCENTILE":30.7}},
{"type":"Feature","geometry":{"type":"Point","coordinates":[-72.0245212,42.42509025]},"properties":{"STAID":"01172500","STANAME":"WARE RIVER NEAR BARRE, MA","ST":"ma","HUC":"01080204","CLASS":5,"FLOW":54.39,"TIME":"2019-11-24","URL":"https://waterdata.usgs.gov/ma/nwis/dv?site_no=01172500","DATUM":"NAD83","COUNT":73,"PERCENTILE":41.81}},
{"type":"Feature","geometry":{"type":"Point","coordinates":[-72.060355,42.3906461]},"properties":{"STAID":"01173000","STANAME":"WARE RIVER AT INTAKE WORKS NEAR BARRE, MA","ST":"ma","HUC":"01080204","CLASS":5,"FLOW":103.64,"TIME":"2019-11-24","URL":"https://waterdata.usgs.gov/ma/nwis/dv?site_no=01173000","DATUM":"NAD83","COUNT":91,"PERCENTILE":46.13}},
{"type":"Feature","geometry":{"type":"Point","coordinates":[-72.27258047,42.2362038]},"properties":{"STAID":"01173500","STANAME":"WARE RIVER AT GIBBS CROSSING, MA","ST":"ma","HUC":"01080204","CLASS":5,"FLOW":141.21,"TIME":"2019-11-24","URL":"https://waterdata.usgs.gov/ma/nwis/dv?site_no=01173500","DATUM":"NAD83","COUNT":88,"PERCENTILE":30.97}},
{"type":"Feature","geometry":{"type":"Point","coordinates":[-72.2384148,42.3934237]},"properties":{"STAID":"01174500","STANAME":"EAST BRANCH SWIFT RIVER NEAR HARDWICK, MA","ST":"ma","HUC":"01080204","CLASS":5,"FLOW":62.9,"TIME":"2019-11-24","URL":"https://waterdata.usgs.gov/ma/nwis/dv?site_no=01174500","DATUM":"NAD83","COUNT":82,"PERCENTILE":52.99}},
{"type":"Feature","geometry":{"type":"Point","coordinates":[-72.3817516,42.45508906]},"properties":{"STAID":"01174565","STANAME":"WEST BRANCH SWIFT RIVER NEAR SHUTESBURY, MA","ST":"ma","HUC":"01080204","CLASS":0,"FLOW":17.41,"TIME":"2019-11-24","URL":"https://waterdata.usgs.gov/ma/nwis/dv?site_no=01174565","DATUM":"NAD83","COUNT":26,"PERCENTILE":51.93}},
{"type":"Feature","geometry":{"type":"Point","coordinates":[-72.3325824,42.2678699]},"properties":{"STAID":"01175500","STANAME":"SWIFT RIVER AT WEST WARE, MA","ST":"ma","HUC":"01080204","CLASS":5,"FLOW":46.74,"TIME":"2019-11-24","URL":"https://waterdata.usgs.gov/ma/nwis/dv?site_no=01175500","DATUM":"NAD83","COUNT":80,"PERCENTILE":53.06}},
{"type":"Feature","geometry":{"type":"Point","coordinates":[-72.0047973,42.26509185]},"properties":{"STAID":"01175670","STANAME":"SEVENMILE RIVER NEAR SPENCER, MA","ST":"ma","HUC":"01080204","CLASS":5,"FLOW":8.33,"TIME":"2019-11-24","URL":"https://waterdata.usgs.gov/ma/nwis/dv?site_no=01175670","DATUM":"NAD83","COUNT":58,"PERCENTILE":42.34}},
{"type":"Feature","geometry":{"type":"Point","coordinates":[-72.263691,42.18231566]},"properties":{"STAID":"01176000","STANAME":"QUABOAG RIVER AT WEST BRIMFIELD, MA","ST":"ma","HUC":"01080204","CLASS":5,"FLOW":205.57,"TIME":"2019-11-24","URL":"https://waterdata.usgs.gov/ma/nwis/dv?site_no=01176000","DATUM":"NAD83","COUNT":107,"PERCENTILE":62.59}},
{"type":"Feature","geometry":{"type":"Point","coordinates":[-72.5139756,42.16064906]},"properties":{"STAID":"01177000","STANAME":"CHICOPEE RIVER AT INDIAN ORCHARD, MA","ST":"ma","HUC":"01080204","CLASS":5,"FLOW":622,"TIME":"2019-11-24","URL":"https://waterdata.usgs.gov/ma/nwis/dv?site_no=01177000","DATUM":"NAD83","COUNT":90,"PERCENTILE":49.11}},
{"type":"Feature","geometry":{"type":"Point","coordinates":[-72.8642636,42.28786655]},"properties":{"STAID":"01179500","STANAME":"WESTFIELD RIVER AT KNIGHTVILLE, MA","ST":"ma","HUC":"01080206","CLASS":5,"FLOW":216.57,"TIME":"2019-11-24","URL":"https://waterdata.usgs.gov/ma/nwis/dv?site_no=01179500","DATUM":"NAD83","COUNT":103,"PERCENTILE":46.5}},
{"type":"Feature","geometry":{"type":"Point","coordinates":[-72.8725975,42.25870025]},"properties":{"STAID":"01180500","STANAME":"MIDDLE BRANCH WESTFIELD RIVER AT GOSS HEIGHTS, MA","ST":"ma","HUC":"01080206","CLASS":0,"FLOW":0,"TIME":"","URL":"https://waterdata.usgs.gov/ma/nwis/dv?site_no=01180500","DATUM":"NAD83","COUNT":0,"PERCENTILE":0}},
{"type":"Feature","geometry":{"type":"Point","coordinates":[-72.895654,42.23731169]},"properties":{"STAID":"01181000","STANAME":"WEST BRANCH WESTFIELD RIVER AT HUNTINGTON, MA","ST":"ma","HUC":"01080206","CLASS":5,"FLOW":131.31,"TIME":"2019-11-24","URL":"https://waterdata.usgs.gov/ma/nwis/dv?site_no=01181000","DATUM":"NAD83","COUNT":83,"PERCENTILE":51.32}},
{"type":"Feature","geometry":{"type":"Point","coordinates":[-72.698981,42.1067602]},"properties":{"STAID":"01183500","STANAME":"WESTFIELD RIVER NEAR WESTFIELD, MA","ST":"ma","HUC":"01080206","CLASS":5,"FLOW":517.86,"TIME":"2019-11-24","URL":"https://waterdata.usgs.gov/ma/nwis/dv?site_no=01183500","DATUM":"NAD83","COUNT":104,"PERCENTILE":37.92}},
{"type":"Feature","geometry":{"type":"Point","coordinates":[-72.6053669,41.9873186]},"properties":{"STAID":"01184000","STANAME":"CONNECTICUT RIVER AT THOMPSONVILLE, CT","ST":"ct","HUC":"01080205","CLASS":5,"FLOW":10924.29,"TIME":"2019-11-24","URL":"https://waterdata.usgs.gov/ct/nwis/dv?site_no=01184000","DATUM":"NAD83","COUNT":90,"PERCENTILE":34.88}},
{"type":"Feature","geometry":{"type":"Point","coordinates":[-72.7104861,41.96083889]},"properties":{"STAID":"01184100","STANAME":"STONY BROOK NEAR WEST SUFFIELD, CT","ST":"ct","HUC":"01080205","CLASS":4,"FLOW":5.49,"TIME":"2019-11-24","URL":"https://waterdata.usgs.gov/ct/nwis/dv?site_no=01184100","DATUM":"NAD83","COUNT":37,"PERCENTILE":18.86}},
{"type":"Feature","geometry":{"type":"Point","coordinates":[-72.5497,41.9138972]},"properties":{"STAID":"01184490","STANAME":"BROAD BROOK AT BROAD BROOK, CT","ST":"ct","HUC":"01080205","CLASS":6,"FLOW":32.7,"TIME":"2019-11-24","URL":"https://waterdata.usgs.gov/ct/nwis/dv?site_no=01184490","DATUM":"NAD83","COUNT":52,"PERCENTILE":82.02}},
{"type":"Feature","geometry":{"type":"Point","coordinates":[-73.0728833,42.0788611]},"properties":{"STAID":"01185500","STANAME":"WEST BRANCH FARMINGTON RIVER NEAR NEW BOSTON, MA","ST":"ma","HUC":"01080207","CLASS":5,"FLOW":230.86,"TIME":"2019-11-24","URL":"https://waterdata.usgs.gov/ma/nwis/dv?site_no=01185500","DATUM":"NAD83","COUNT":104,"PERCENTILE":63.75}},
{"type":"Feature","geometry":{"type":"Point","coordinates":[-73.017606,41.9628729]},"properties":{"STAID":"01186000","STANAME":"WEST BRANCH FARMINGTON RIVER AT RIVERTON, CT","ST":"ct","HUC":"01080207","CLASS":5,"FLOW":242.43,"TIME":"2019-11-24","URL":"https://waterdata.usgs.gov/ct/nwis/dv?site_no=01186000","DATUM":"NAD83","COUNT":64,"PERCENTILE":52.58}},
{"type":"Feature","geometry":{"type":"Point","coordinates":[-73.0334444,41.9679222]},"properties":{"STAID":"01186500","STANAME":"STILL RIVER AT ROBERTSVILLE, CT","ST":"ct","HUC":"01080207","CLASS":5,"FLOW":129.16,"TIME":"2019-11-24","URL":"https://waterdata.usgs.gov/ct/nwis/dv?site_no=01186500","DATUM":"NAD83","COUNT":66,"PERCENTILE":54.91}},
{"type":"Feature","geometry":{"type":"Point","coordinates":[-72.93932778,42.0375]},"properties":{"STAID":"01187300","STANAME":"HUBBARD RIVER NEAR WEST HARTLAND, CT","ST":"ct","HUC":"01080207","CLASS":5,"FLOW":32.2,"TIME":"2019-11-24","URL":"https://waterdata.usgs.gov/ct/nwis/dv?site_no=01187300","DATUM":"NAD83","COUNT":78,"PERCENTILE":47.01}},
{"type":"Feature","geometry":{"type":"Point","coordinates":[-72.9701041,41.8206529]},"properties":{"STAID":"01187800","STANAME":"NEPAUG R NR NEPAUG, CT.","ST":"ct","HUC":"01080207","CLASS":5,"FLOW":21.4,"TIME":"2019-11-24","URL":"https://waterdata.usgs.gov/ct/nwis/dv?site_no=01187800","DATUM":"NAD83","COUNT":54,"PERCENTILE":38.86}},
{"type":"Feature","geometry":{"type":"Point","coordinates":[-72.9648261,41.786209]},"properties":{"STAID":"01188000","STANAME":"BUNNELL BROOK NEAR BURLINGTON, CT","ST":"ct","HUC":"01080207","CLASS":5,"FLOW":9.03,"TIME":"2019-11-24","URL":"https://waterdata.usgs.gov/ct/nwis/dv?site_no=01188000","DATUM":"NAD83","COUNT":86,"PERCENTILE":64.37}},
{"type":"Feature","geometry":{"type":"Point","coordinates":[-72.8870417,41.7555472]},"properties":{"STAID":"01188090","STANAME":"FARMINGTON RIVER AT UNIONVILLE, CT","ST":"ct","HUC":"01080207","CLASS":5,"FLOW":467.57,"TIME":"2019-11-24","URL":"https://waterdata.usgs.gov/ct/nwis/dv?site_no=01188090","DATUM":"NAD83","COUNT":40,"PERCENTILE":40.75}},
{"type":"Feature","geometry":{"type":"Point","coordinates":[-72.90065738,41.673154]},"properties":{"STAID":"01189000","STANAME":"PEQUABUCK R AT FORESTVILLE, CT.","ST":"ct","HUC":"01080207","CLASS":5,"FLOW":54.36,"TIME":"2019-11-24","URL":"https://waterdata.usgs.gov/ct/nwis/dv?site_no=01189000","DATUM":"NAD83","COUNT":70,"PERCENTILE":51.62}},
{"type":"Feature","geometry":{"type":"Point","coordinates":[-72.75935278,41.9082833]},"properties":{"STAID":"01189995","STANAME":"FARMINGTON RIVER AT TARIFFVILLE, CT","ST":"ct","HUC":"01080207","CLASS":4,"FLOW":571,"TIME":"2019-11-24","URL":"https://waterdata.usgs.gov/ct/nwis/dv?site_no=01189995","DATUM":"NAD83","COUNT":46,"PERCENTILE":24.71}},
{"type":"Feature","geometry":{"type":"Point","coordinates":[-72.7080556,41.78443889]},"properties":{"STAID":"01191000","STANAME":"NORTH BRANCH PARK RIVER AT HARTFORD, CT","ST":"ct","HUC":"01080205","CLASS":6,"FLOW":42.73,"TIME":"2019-11-24","URL":"https://waterdata.usgs.gov/ct/nwis/dv?site_no=01191000","DATUM":"NAD83","COUNT":53,"PERCENTILE":78.48}},
{"type":"Feature","geometry":{"type":"Point","coordinates":[-72.5873114,41.7831548]},"properties":{"STAID":"01192500","STANAME":"HOCKANUM RIVER NEAR EAST HARTFORD, CT","ST":"ct","HUC":"01080205","CLASS":6,"FLOW":120.41,"TIME":"2019-11-24","URL":"https://waterdata.usgs.gov/ct/nwis/dv?site_no=01192500","DATUM":"NAD83","COUNT":86,"PERCENTILE":76.74}},
{"type":"Feature","geometry":{"type":"Point","coordinates":[-72.7065306,41.5202333]},"properties":{"STAID":"01192883","STANAME":"COGINCHAUG RIVER AT MIDDLEFIELD, CT","ST":"ct","HUC":"01080205","CLASS":5,"FLOW":21.7,"TIME":"2019-11-24","URL":"https://waterdata.usgs.gov/ct/nwis/dv?site_no=01192883","DATUM":"NAD83","COUNT":37,"PERCENTILE":25.49}},
{"type":"Feature","geometry":{"type":"Point","coordinates":[-72.44925287,41.55232124]},"properties":{"STAID":"01193500","STANAME":"SALMON RIVER NEAR EAST HAMPTON, CT","ST":"ct","HUC":"01080205","CLASS":5,"FLOW":101.46,"TIME":"2019-11-24","URL":"https://waterdata.usgs.gov/ct/nwis/dv?site_no=01193500","DATUM":"NAD83","COUNT":90,"PERCENTILE":39.38}},
{"type":"Feature","geometry":{"type":"Point","coordinates":[-72.33267778,41.44166944]},"properties":{"STAID":"01194000","STANAME":"EIGHTMILE RIVER AT NORTH PLAIN, CT","ST":"ct","HUC":"01080205","CLASS":6,"FLOW":48.63,"TIME":"2019-11-24","URL":"https://waterdata.usgs.gov/ct/nwis/dv?site_no=01194000","DATUM":"NAD83","COUNT":40,"PERCENTILE":80.79}},
{"type":"Feature","geometry":{"type":"Point","coordinates":[-72.33477778,41.42751667]},"properties":{"STAID":"01194500","STANAME":"EAST BRANCH EIGHTMILE RIVER NEAR NORTH LYME, CT","ST":"ct","HUC":"01080205","CLASS":5,"FLOW":22.04,"TIME":"2019-11-24","URL":"https://waterdata.usgs.gov/ct/nwis/dv?site_no=01194500","DATUM":"NAD83","COUNT":62,"PERCENTILE":35.41}},
{"type":"Feature","geometry":{"type":"Point","coordinates":[-72.5310333,41.3061722]},